{
    "한식": [
        {
            "id": 0,
            "category_name": "한식",
            "name_kor": "전주중앙회관",
            "add_kor_road": "서울 중구 명동8나길 19 (충무로1가) ",
            "lat": 37.5611017,
            "lng": 126.9838034
        },
        {
            "id": 1,
            "category_name": "한식",
            "name_kor": "전주풍남회관",
            "add_kor_road": "서울 중구 태평로1가 62-7 광안빌딩 2",
            "lat": 37.5686734,
            "lng": 126.9760808
        },
        {
            "id": 2,
            "category_name": "한식",
            "name_kor": "정성본샤브수끼",
            "add_kor_road": "서울 중구 을지로43길 30 (을지로6가) 미진빌딩",
            "lat": 37.5674241,
            "lng": 127.0074666
        },
        {
            "id": 3,
            "category_name": "한식",
            "name_kor": "정통삼계탕",
            "add_kor_road": "서울 중구 수표동 35-12",
            "lat": 37.5674497,
            "lng": 126.9898139
        },
        {
            "id": 4,
            "category_name": "한식",
            "name_kor": "제일가든",
            "add_kor_road": "중구 무교로 17-17(무교동 31)",
            "lat": 37.5673942,
            "lng": 126.978855
        },
        {
            "id": 5,
            "category_name": "한식",
            "name_kor": "제일냉면숯불갈비",
            "add_kor_road": "중구 남대문로1길 42(북창동 18 - 9)",
            "lat": 37.5629351,
            "lng": 126.9775213
        },
        {
            "id": 6,
            "category_name": "한식",
            "name_kor": "조마루",
            "add_kor_road": "서울 중구 수표로 20-1 (충무로3가) ",
            "lat": 37.5630061,
            "lng": 126.9904727
        },
        {
            "id": 7,
            "category_name": "한식",
            "name_kor": "주원산오리",
            "add_kor_road": "서울 중구 을지로6가 18-59",
            "lat": 37.5669107,
            "lng": 127.006453
        },
        {
            "id": 8,
            "category_name": "한식",
            "name_kor": "중앙회관",
            "add_kor_road": "중구 명동8나길 19(충무로1가 24 - 11)",
            "lat": 37.5611169,
            "lng": 126.9839296
        },
        {
            "id": 9,
            "category_name": "한식",
            "name_kor": "지이오",
            "add_kor_road": "서울 중구 봉래동1가 132-9",
            "lat": 37.5581598,
            "lng": 126.9724515
        },
        {
            "id": 10,
            "category_name": "한식",
            "name_kor": "지화자장충점",
            "add_kor_road": "서울 중구 장충단로 59(장충동2가 산14-67), 국립극장 지하1층",
            "lat": 37.5525561,
            "lng": 126.9996092
        },
        {
            "id": 11,
            "category_name": "한식",
            "name_kor": "진고개",
            "add_kor_road": "중구 충무로 19-1(충무로3가 30 - 16)",
            "lat": 37.5629747,
            "lng": 126.9928161
        },
        {
            "id": 12,
            "category_name": "한식",
            "name_kor": "진두부집",
            "add_kor_road": "중구 동호로24길 39(장충동2가 12-4)",
            "lat": 37.5608928,
            "lng": 127.0052913
        },
        {
            "id": 13,
            "category_name": "한식",
            "name_kor": "진미족발",
            "add_kor_road": "서울 중구 다동길 24-4 (다동) ",
            "lat": 37.5675399,
            "lng": 126.9804898
        },
        {
            "id": 14,
            "category_name": "한식",
            "name_kor": "진주회관",
            "add_kor_road": "서울 중구 세종대로11길 26 (서소문동)",
            "lat": 37.5624142,
            "lng": 126.9745054
        },
        {
            "id": 62,
            "category_name": "한식",
            "name_kor": "충무로돼지갈비",
            "add_kor_road": "중구 수표로6길 39(충무로3가 29 - 2)",
            "lat": 37.5628152,
            "lng": 126.9925976
        },
        {
            "id": 63,
            "category_name": "한식",
            "name_kor": "충무집",
            "add_kor_road": "서울 중구 남대문로9길 24 (다동) ",
            "lat": 37.567102,
            "lng": 126.9811195
        },
        {
            "id": 64,
            "category_name": "한식",
            "name_kor": "태진숯불갈비",
            "add_kor_road": "중구 무교로 17-25(태평로1가 31 - 19)",
            "lat": 37.5674147,
            "lng": 126.9785246
        },
        {
            "id": 65,
            "category_name": "한식",
            "name_kor": "토랑토",
            "add_kor_road": "중구 다산로 289(신당동 193-29)",
            "lat": 37.5684893,
            "lng": 127.0145122
        },
        {
            "id": 66,
            "category_name": "한식",
            "name_kor": "평래옥",
            "add_kor_road": "서울 중구 저동2가 18-1",
            "lat": 37.56487389999999,
            "lng": 126.9903716
        },
        {
            "id": 67,
            "category_name": "한식",
            "name_kor": "평양면옥(장충동)",
            "add_kor_road": "중구 장충단로 207(장충동1가 26 - 14)",
            "lat": 37.5630843,
            "lng": 127.0064971
        },
        {
            "id": 68,
            "category_name": "한식",
            "name_kor": "평옥칡냉면",
            "add_kor_road": "서울 중구 황학동 1459",
            "lat": 37.5687525,
            "lng": 127.022007
        },
        {
            "id": 69,
            "category_name": "한식",
            "name_kor": "평창우선생",
            "add_kor_road": "서울 중구 의주로1가 32-2 바비엥 1층",
            "lat": 37.5642792,
            "lng": 126.9684725
        },
        {
            "id": 70,
            "category_name": "한식",
            "name_kor": "풀향기",
            "add_kor_road": "중구 동호로 268-8 (장충동2가 193-5)",
            "lat": 37.5594576,
            "lng": 127.0038175
        },
        {
            "id": 71,
            "category_name": "한식",
            "name_kor": "필동면옥",
            "add_kor_road": "중구 서애로 26(필동3가 1 - 5)",
            "lat": 37.5603604,
            "lng": 126.9969996
        },
        {
            "id": 72,
            "category_name": "한식",
            "name_kor": "하누소(회현점)",
            "add_kor_road": "서울 중구 중구 퇴계로 72(회현동1가 206) SK리더스뷰 B1F 116호",
            "lat": 37.5592302,
            "lng": 126.9806639
        },
        {
            "id": 73,
            "category_name": "한식",
            "name_kor": "하동관",
            "add_kor_road": "중구 명동9길 12(명동1가 10-4)",
            "lat": 37.5643946,
            "lng": 126.9850185
        },
        {
            "id": 74,
            "category_name": "한식",
            "name_kor": "한국의집",
            "add_kor_road": "서울시 중구 퇴계로36길 10 (필동)",
            "lat": 37.5601211,
            "lng": 126.9943973
        },
        {
            "id": 75,
            "category_name": "한식",
            "name_kor": "한성옥",
            "add_kor_road": "서울 중구 동호로24길 27-7 (장충동2가) ",
            "lat": 37.5604106,
            "lng": 127.0049559
        },
        {
            "id": 76,
            "category_name": "한식",
            "name_kor": "한우리참숯집",
            "add_kor_road": "서울특별시 중구 을지로 251 (을지로6가)",
            "lat": 37.5660909,
            "lng": 127.0063279
        },
        {
            "id": 77,
            "category_name": "한식",
            "name_kor": "한창가든",
            "add_kor_road": "중구 서소문로89-20(정동 34-7)",
            "lat": 37.5631399,
            "lng": 126.9719451
        },
        {
            "id": 78,
            "category_name": "한식",
            "name_kor": "함흥냉면",
            "add_kor_road": "중구 마른내로 108(오장동 90-10)",
            "lat": 37.564234,
            "lng": 126.9998714
        },
        {
            "id": 79,
            "category_name": "한식",
            "name_kor": "함흥냉면(약수점)",
            "add_kor_road": "서울 중구 신당2동 374-9",
            "lat": 37.5557517,
            "lng": 127.010902
        },
        {
            "id": 80,
            "category_name": "한식",
            "name_kor": "햇살마루",
            "add_kor_road": "중구 세종대로2길 11(남대문로5가 217), (2층)",
            "lat": 37.5575747,
            "lng": 126.9741822
        },
        {
            "id": 81,
            "category_name": "한식",
            "name_kor": "화성",
            "add_kor_road": "중구 세종대로136(태평로1가 84), 파이넨스빌딩 지하1층 B동 132호",
            "lat": 37.568369,
            "lng": 126.97779
        },
        {
            "id": 82,
            "category_name": "한식",
            "name_kor": "황소집",
            "add_kor_road": "중구 충무로2길 2(충무로3가 36-4)",
            "lat": 37.562473,
            "lng": 126.993321
        },
        {
            "id": 83,
            "category_name": "한식",
            "name_kor": "황토골",
            "add_kor_road": "서울 중구 충무로5가 79-1",
            "lat": 37.5615587,
            "lng": 126.9981607
        },
        {
            "id": 149,
            "category_name": "한식",
            "name_kor": "석산정",
            "add_kor_road": "중구 을지로 153-3(산림동 294 - 0 295, 296-1)",
            "lat": 37.5669521,
            "lng": 126.9951691
        },
        {
            "id": 150,
            "category_name": "한식",
            "name_kor": "석천",
            "add_kor_road": "중구 퇴계로 36(남창동 169 - 2)",
            "lat": 37.5572304,
            "lng": 126.9769977
        },
        {
            "id": 196,
            "category_name": "한식",
            "name_kor": "KR명동삼계탕",
            "add_kor_road": "서울 중구 충무로1가 25-9",
            "lat": 37.560981,
            "lng": 126.9821321
        },
        {
            "id": 197,
            "category_name": "한식",
            "name_kor": "가나안뼈해장국",
            "add_kor_road": "서울 중구 다산로 131 (신당동) ",
            "lat": 37.5556662,
            "lng": 127.010807
        },
        {
            "id": 198,
            "category_name": "한식",
            "name_kor": "가능골명가",
            "add_kor_road": "중구 중림로10(중림동 200) ( 삼성사이버빌리지상가3동101-1,2,3,4,5호)",
            "lat": 37.5587312,
            "lng": 126.9649372
        },
        {
            "id": 199,
            "category_name": "한식",
            "name_kor": "강남오리감자탕",
            "add_kor_road": "서울 중구 신당동 292-46",
            "lat": 37.5623635,
            "lng": 127.0153207
        },
        {
            "id": 200,
            "category_name": "한식",
            "name_kor": "강호동백점(명동점)",
            "add_kor_road": "서울 중구 명동2가 3-3",
            "lat": 37.56303279999999,
            "lng": 126.9856018
        },
        {
            "id": 201,
            "category_name": "한식",
            "name_kor": "거북이등",
            "add_kor_road": "서울 중구 신당5동 142-5",
            "lat": 37.5647427,
            "lng": 127.0208913
        },
        {
            "id": 202,
            "category_name": "한식",
            "name_kor": "경복궁",
            "add_kor_road": "중구 마른내로6 (저동2가 88-5)",
            "lat": 37.5631237,
            "lng": 126.9951313
        },
        {
            "id": 203,
            "category_name": "한식",
            "name_kor": "고궁",
            "add_kor_road": "중구 명동8가길 37(충무로2가 12 - 14 ), (지상1,2층)",
            "lat": 37.561886,
            "lng": 126.9871012
        },
        {
            "id": 204,
            "category_name": "한식",
            "name_kor": "고기사랑",
            "add_kor_road": "서울 중구 광희동1가 182-10호",
            "lat": 37.5653623,
            "lng": 127.0066174
        },
        {
            "id": 205,
            "category_name": "한식",
            "name_kor": "고려삼계탕",
            "add_kor_road": "중구 서소문로11길 1(서소문동55-3)",
            "lat": 37.5639079,
            "lng": 126.9729972
        },
        {
            "id": 206,
            "category_name": "한식",
            "name_kor": "고상",
            "add_kor_road": "서울 중구 을지로5길 26 (수하동) ",
            "lat": 37.5673583,
            "lng": 126.9851356
        },
        {
            "id": 207,
            "category_name": "한식",
            "name_kor": "고향집",
            "add_kor_road": "서울 중구 광희동2가 35-1",
            "lat": 37.5647386,
            "lng": 127.0078878
        },
        {
            "id": 208,
            "category_name": "한식",
            "name_kor": "골목맛집",
            "add_kor_road": null,
            "lat": null,
            "lng": null
        },
        {
            "id": 209,
            "category_name": "한식",
            "name_kor": "곰국시집",
            "add_kor_road": "중구 무교로 24(무교동 12 - 1)",
            "lat": 37.5680556,
            "lng": 126.9794444
        },
        {
            "id": 210,
            "category_name": "한식",
            "name_kor": "곰솥집",
            "add_kor_road": "중구 명동3길 36(을지로2가 199-13)",
            "lat": 37.56533599999999,
            "lng": 126.9836822
        },
        {
            "id": 211,
            "category_name": "한식",
            "name_kor": "광개토",
            "add_kor_road": "중구 삼일대로 341(저동1가 48)",
            "lat": 37.5652407,
            "lng": 126.9871124
        },
        {
            "id": 212,
            "category_name": "한식",
            "name_kor": "광동수산",
            "add_kor_road": "서울 중구 신당6동 102-1",
            "lat": 37.5639134,
            "lng": 127.0161979
        },
        {
            "id": 213,
            "category_name": "한식",
            "name_kor": "광화문두부촌",
            "add_kor_road": "서울 중구 세종대로21길 49 (태평로1가) ",
            "lat": 37.56865800000001,
            "lng": 126.9755866
        },
        {
            "id": 265,
            "category_name": "한식",
            "name_kor": "구팡돌할매보쌈",
            "add_kor_road": "중구 덕수궁길 7(태평로2가 366-1)",
            "lat": 37.5646819,
            "lng": 126.9763406
        },
        {
            "id": 266,
            "category_name": "한식",
            "name_kor": "군산오징어",
            "add_kor_road": "중구 명동10길 35-9(명동2가 25 - 26)",
            "lat": 37.5624118,
            "lng": 126.9857958
        },
        {
            "id": 267,
            "category_name": "한식",
            "name_kor": "권가명가",
            "add_kor_road": "중구 을지로43길 38(을지로6가 18-37), 삼정빌딩2층",
            "lat": 37.5669123,
            "lng": 127.0067815
        },
        {
            "id": 268,
            "category_name": "한식",
            "name_kor": "금강보글보글섞어찌개",
            "add_kor_road": "중구 명동7가길 20-8(을지로2가 199 - 61)",
            "lat": 37.5647204,
            "lng": 126.9832901
        },
        {
            "id": 269,
            "category_name": "한식",
            "name_kor": "금문",
            "add_kor_road": "중구 정동길 6-1(정동 24-3)",
            "lat": 37.5676703,
            "lng": 126.9695634
        },
        {
            "id": 270,
            "category_name": "한식",
            "name_kor": "나도향",
            "add_kor_road": "서울 중구 명동2길 8 (명동2가) ",
            "lat": 37.562866,
            "lng": 126.9823453
        },
        {
            "id": 271,
            "category_name": "한식",
            "name_kor": "낙동강",
            "add_kor_road": "서울 중구 다동 175번지",
            "lat": 37.5675633,
            "lng": 126.9799688
        },
        {
            "id": 272,
            "category_name": "한식",
            "name_kor": "남문토방",
            "add_kor_road": "서울 중구 남대문시장길 73-5 (회현동1가)",
            "lat": 37.5610313,
            "lng": 126.9800295
        },
        {
            "id": 273,
            "category_name": "한식",
            "name_kor": "남산설렁탕",
            "add_kor_road": "서울 중구 예장동 8-59",
            "lat": 37.5567483,
            "lng": 126.984897
        },
        {
            "id": 274,
            "category_name": "한식",
            "name_kor": "남원정",
            "add_kor_road": "중구 세종대로 135-7(태평로1가 62 - 9), 지상2층",
            "lat": 37.5683825,
            "lng": 126.9762368
        },
        {
            "id": 275,
            "category_name": "한식",
            "name_kor": "남원추어탕",
            "add_kor_road": "서울 중구 을지로5가 79-1",
            "lat": 37.5660646,
            "lng": 127.0035642
        },
        {
            "id": 276,
            "category_name": "한식",
            "name_kor": "남포면옥",
            "add_kor_road": "서울 중구 다동 125번지",
            "lat": 37.5672531,
            "lng": 126.9816132
        },
        {
            "id": 277,
            "category_name": "한식",
            "name_kor": "느티나무와 곰이복이",
            "add_kor_road": "서울 중구 신당동 251-131",
            "lat": 37.5664554,
            "lng": 127.0128716
        },
        {
            "id": 278,
            "category_name": "한식",
            "name_kor": "느티나무집",
            "add_kor_road": "서울 중구 장충동2가 186-74",
            "lat": 37.5602065,
            "lng": 127.0036174
        },
        {
            "id": 279,
            "category_name": "한식",
            "name_kor": "다채",
            "add_kor_road": "서울 중구 신당동 213-3 동원프라자2층",
            "lat": 37.5690395,
            "lng": 127.0135065
        },
        {
            "id": 280,
            "category_name": "한식",
            "name_kor": "달개비",
            "add_kor_road": "서울 중구 세종대로19길 16(정동 3-7)",
            "lat": 37.5667701,
            "lng": 126.9760823
        },
        {
            "id": 281,
            "category_name": "한식",
            "name_kor": "닭한마리돼지한근",
            "add_kor_road": "서울 중구 장충동2가 25-3",
            "lat": 37.5606831,
            "lng": 127.0052217
        },
        {
            "id": 282,
            "category_name": "한식",
            "name_kor": "담양숯불떡갈비",
            "add_kor_road": "서울 중구 신당3동 372-37",
            "lat": 37.5529909,
            "lng": 127.0114388
        },
        {
            "id": 283,
            "category_name": "한식",
            "name_kor": "대림정",
            "add_kor_road": "중구 퇴계로 205(필동2가 13 - 18)",
            "lat": 37.5615397,
            "lng": 126.994548
        },
        {
            "id": 284,
            "category_name": "한식",
            "name_kor": "대복",
            "add_kor_road": "중구 퇴계로 253-7(충무로5가 20 - 13)",
            "lat": 37.5629553,
            "lng": 126.9997527
        },
        {
            "id": 285,
            "category_name": "한식",
            "name_kor": "대복집",
            "add_kor_road": "중구 세종대로14길 22-2(북창동 65)",
            "lat": 37.5627093,
            "lng": 126.9778685
        },
        {
            "id": 286,
            "category_name": "한식",
            "name_kor": "대원",
            "add_kor_road": "서울 중구 충무로2가 12-19",
            "lat": 37.5618644,
            "lng": 126.9867857
        },
        {
            "id": 287,
            "category_name": "한식",
            "name_kor": "대원집",
            "add_kor_road": "서울 중구 다동 124-2",
            "lat": 37.5673705,
            "lng": 126.9816376
        },
        {
            "id": 288,
            "category_name": "한식",
            "name_kor": "대장금",
            "add_kor_road": "중구 동호로 235-14(장충동2가 200 - 82), 지상 1-2-3층",
            "lat": 37.5576255,
            "lng": 127.0069985
        },
        {
            "id": 289,
            "category_name": "한식",
            "name_kor": "대장금한정식",
            "add_kor_road": "중구 동호로 235-14(장충동2가 200 - 82), 지상 1-2-3층",
            "lat": 37.5576255,
            "lng": 127.0069985
        },
        {
            "id": 290,
            "category_name": "한식",
            "name_kor": "돈궁",
            "add_kor_road": "서울 중구 다동 134-1번지",
            "lat": 37.5674379,
            "lng": 126.980781
        },
        {
            "id": 291,
            "category_name": "한식",
            "name_kor": "동해횟집",
            "add_kor_road": "서울 중구 신당동 121-30",
            "lat": 37.5648251,
            "lng": 127.0188856
        },
        {
            "id": 292,
            "category_name": "한식",
            "name_kor": "등촌샤브칼국수",
            "add_kor_road": "중구 동호로 191(신당동 360-3),",
            "lat": 37.5548714,
            "lng": 127.0099403
        },
        {
            "id": 293,
            "category_name": "한식",
            "name_kor": "마당집",
            "add_kor_road": "중구 칠패로 28(순화동 206-2)",
            "lat": 37.5593903,
            "lng": 126.9720068
        },
        {
            "id": 294,
            "category_name": "한식",
            "name_kor": "만포집",
            "add_kor_road": "서울 중구 마른내로 85 (예관동) ",
            "lat": 37.56434429999999,
            "lng": 126.9908812
        },
        {
            "id": 295,
            "category_name": "한식",
            "name_kor": "말뚜기감자탕",
            "add_kor_road": "서울 중구 장충동1가 59-2",
            "lat": 37.5609426,
            "lng": 127.0056461
        },
        {
            "id": 296,
            "category_name": "한식",
            "name_kor": "명동교자",
            "add_kor_road": "서울특별시 중구 명동10길 29 (명동2가)",
            "lat": 37.5625339,
            "lng": 126.9857421
        },
        {
            "id": 297,
            "category_name": "한식",
            "name_kor": "명동부대찌개",
            "add_kor_road": "중구 명동길 25-7(명동1가 54 - 7)",
            "lat": 37.5641029,
            "lng": 126.9837852
        },
        {
            "id": 298,
            "category_name": "한식",
            "name_kor": "명동부대찌게",
            "add_kor_road": "중구 명동길 25-7(명동1가 54 - 7)",
            "lat": 37.5641029,
            "lng": 126.9837852
        },
        {
            "id": 299,
            "category_name": "한식",
            "name_kor": "명동삼계탕",
            "add_kor_road": "중구 세종대로21길 55(태평로1가 76-1)",
            "lat": 37.5682757,
            "lng": 126.9756694
        },
        {
            "id": 300,
            "category_name": "한식",
            "name_kor": "명동주물럭",
            "add_kor_road": "서울 중구 명동2가 32-2번지",
            "lat": 37.5628767,
            "lng": 126.9851545
        },
        {
            "id": 301,
            "category_name": "한식",
            "name_kor": "명동함흥면옥",
            "add_kor_road": "중구 명동10길 25(명동2가 26-2)",
            "lat": 37.5627334,
            "lng": 126.9856737
        },
        {
            "id": 302,
            "category_name": "한식",
            "name_kor": "모란",
            "add_kor_road": "서울 중구 태평로2가 68-4",
            "lat": 37.56315379999999,
            "lng": 126.9772784
        },
        {
            "id": 303,
            "category_name": "한식",
            "name_kor": "목우촌명가",
            "add_kor_road": "중구 통일로114(의주로1가 25-10)",
            "lat": 37.5652006,
            "lng": 126.9679199
        },
        {
            "id": 304,
            "category_name": "한식",
            "name_kor": "목포낙지",
            "add_kor_road": "서울 중구 신당6동 292-37",
            "lat": 37.562725,
            "lng": 127.0157766
        },
        {
            "id": 591,
            "category_name": "한식",
            "name_kor": "참맛감자탕",
            "add_kor_road": "서울 중구 다산로 107 (신당동) ",
            "lat": 37.55362520000001,
            "lng": 127.0096026
        },
        {
            "id": 592,
            "category_name": "한식",
            "name_kor": "청기와복집",
            "add_kor_road": "서울 중구 신당2동 381-11",
            "lat": 37.5558639,
            "lng": 127.0106301
        },
        {
            "id": 593,
            "category_name": "한식",
            "name_kor": "청목원",
            "add_kor_road": "중구 세종대로2나길 8(남대문로5가 214)",
            "lat": 37.5577598,
            "lng": 126.974329
        },
        {
            "id": 594,
            "category_name": "한식",
            "name_kor": "청송옥",
            "add_kor_road": "중구 서소문로11길 14(서소문동 52-1)",
            "lat": 37.5639079,
            "lng": 126.9729972
        },
        {
            "id": 595,
            "category_name": "한식",
            "name_kor": "충무김밥",
            "add_kor_road": "서울 중구 명동10길 17-1 (명동2가) ",
            "lat": 37.5629721,
            "lng": 126.9854622
        },
        {
            "id": 596,
            "category_name": "한식",
            "name_kor": "세림",
            "add_kor_road": "중구 남대문로9길 24(다동 140)",
            "lat": 37.567102,
            "lng": 126.9811195
        },
        {
            "id": 597,
            "category_name": "한식",
            "name_kor": "속초집",
            "add_kor_road": "서울 중구 남대문로 25-15 (북창동) ",
            "lat": 37.5623517,
            "lng": 126.9773652
        },
        {
            "id": 598,
            "category_name": "한식",
            "name_kor": "손가명가",
            "add_kor_road": "중구 을지로1길 46(다동 47)",
            "lat": 37.5680852,
            "lng": 126.9798824
        },
        {
            "id": 599,
            "category_name": "한식",
            "name_kor": "송원",
            "add_kor_road": "중구 동호로24길 15(장충동2가 188 - 4)",
            "lat": 37.5598643,
            "lng": 127.0051363
        },
        {
            "id": 600,
            "category_name": "한식",
            "name_kor": "송정",
            "add_kor_road": "중구 을지로38길 11(광희동1가 38 - 1), (지상1층, 지상2층)",
            "lat": 37.565686,
            "lng": 127.0035728
        },
        {
            "id": 601,
            "category_name": "한식",
            "name_kor": "송정",
            "add_kor_road": "중구 을지로38길 11(광희동1가 38 - 1), (지상1층, 지상2층)",
            "lat": 37.565686,
            "lng": 127.0035728
        },
        {
            "id": 602,
            "category_name": "한식",
            "name_kor": "솥정원",
            "add_kor_road": "중구 명동10길 19-3(명동2가 3-3)",
            "lat": 37.56303279999999,
            "lng": 126.9856018
        },
        {
            "id": 603,
            "category_name": "한식",
            "name_kor": "신촌설렁탕",
            "add_kor_road": "서울 중구 남대문로5가 541",
            "lat": 37.5554652,
            "lng": 126.9737482
        },
        {
            "id": 604,
            "category_name": "한식",
            "name_kor": "아구랑꽃게랑",
            "add_kor_road": "서울 중구 장충동2가 24-35",
            "lat": 37.5607354,
            "lng": 127.0050036
        },
        {
            "id": 605,
            "category_name": "한식",
            "name_kor": "아리랑가든",
            "add_kor_road": "서울 중구 필동2가 7-2",
            "lat": 37.5607954,
            "lng": 126.9940158
        },
        {
            "id": 606,
            "category_name": "한식",
            "name_kor": "아미소(명동본점)",
            "add_kor_road": "서울 중구 명동2가 53-1 5층",
            "lat": 37.5624081,
            "lng": 126.9841059
        },
        {
            "id": 607,
            "category_name": "한식",
            "name_kor": "아이러브신당동 떡볶이",
            "add_kor_road": "중구 퇴계로76길 50(신당1동 302-4)",
            "lat": 37.5632649,
            "lng": 127.0148884
        },
        {
            "id": 608,
            "category_name": "한식",
            "name_kor": "약수한방삼계탕",
            "add_kor_road": "중구 다산로 77(신당2동 353-22)",
            "lat": 37.5514838,
            "lng": 127.0077183
        },
        {
            "id": 609,
            "category_name": "한식",
            "name_kor": "양미옥",
            "add_kor_road": "중구 충무로 62(을지로3가 161)",
            "lat": 37.5667742,
            "lng": 126.9928001
        },
        {
            "id": 610,
            "category_name": "한식",
            "name_kor": "엉터리생고기",
            "add_kor_road": "중구  통일로4길 16(순화동 1-5), (3층)",
            "lat": 37.5642192,
            "lng": 126.9689272
        },
        {
            "id": 611,
            "category_name": "한식",
            "name_kor": "엉터리생고기 ",
            "add_kor_road": "서울 중구 동호로 201 (신당동)",
            "lat": 37.5558061,
            "lng": 127.0094379
        },
        {
            "id": 612,
            "category_name": "한식",
            "name_kor": "옛멀",
            "add_kor_road": "중구 퇴계로 409(흥인동 91), 지상2층",
            "lat": 37.5657248,
            "lng": 127.0169857
        },
        {
            "id": 613,
            "category_name": "한식",
            "name_kor": "오대감",
            "add_kor_road": "서울 중구 명동8나길 35 (충무로1가) ",
            "lat": 37.561091,
            "lng": 126.9829784
        },
        {
            "id": 614,
            "category_name": "한식",
            "name_kor": "오복정",
            "add_kor_road": "중구 세종대로11길 30(서소문동 120 - 12)",
            "lat": 37.562308,
            "lng": 126.974192
        },
        {
            "id": 615,
            "category_name": "한식",
            "name_kor": "오신정",
            "add_kor_road": "서울 중구 충무로3가 23-3",
            "lat": 37.5631316,
            "lng": 126.9913561
        },
        {
            "id": 616,
            "category_name": "한식",
            "name_kor": "오장갈비",
            "add_kor_road": "중구 마른내로 109(오장동 69 - 5)",
            "lat": 37.5645795,
            "lng": 127.0000309
        },
        {
            "id": 617,
            "category_name": "한식",
            "name_kor": "오장동 복집",
            "add_kor_road": "중구 퇴계로45길 32-41(오장동 90-4), (1층)",
            "lat": 37.5640935,
            "lng": 126.9999944
        },
        {
            "id": 618,
            "category_name": "한식",
            "name_kor": "오장동 신창면옥",
            "add_kor_road": "중구 마른내로 106(오장동 90 - 8)",
            "lat": 37.56421590000001,
            "lng": 126.9996475
        },
        {
            "id": 619,
            "category_name": "한식",
            "name_kor": "오장동 함흥냉면",
            "add_kor_road": "중구 다산로 178(신당4동 330 - 380)",
            "lat": 37.5591881,
            "lng": 127.0135776
        },
        {
            "id": 620,
            "category_name": "한식",
            "name_kor": "오장동복집",
            "add_kor_road": "중구 퇴계로45길 32-41(오장동 90-4),  (1층)",
            "lat": 37.5640935,
            "lng": 126.9999944
        },
        {
            "id": 621,
            "category_name": "한식",
            "name_kor": "오장동흥남집",
            "add_kor_road": "중구 마른내로 114(오장동 101 - 7)",
            "lat": 37.564238,
            "lng": 127.000555
        },
        {
            "id": 622,
            "category_name": "한식",
            "name_kor": "옥돌정",
            "add_kor_road": "서울 중구 퇴계로48길 12 (묵정동) ",
            "lat": 37.5621033,
            "lng": 127.0004387
        },
        {
            "id": 623,
            "category_name": "한식",
            "name_kor": "용궁해물샤브스끼",
            "add_kor_road": "서울 중구 다동 47번지",
            "lat": 37.5680852,
            "lng": 126.9798824
        },
        {
            "id": 624,
            "category_name": "한식",
            "name_kor": "용수산",
            "add_kor_road": "중구 세종대로136(태평로1가 84), 파이넨스빌딩 지하1층 105동 A호",
            "lat": 37.568369,
            "lng": 126.97779
        },
        {
            "id": 625,
            "category_name": "한식",
            "name_kor": "우래옥",
            "add_kor_road": "중구 창경궁로 62-29(주교동 118 - 1)",
            "lat": 37.5681817,
            "lng": 126.9987236
        },
        {
            "id": 626,
            "category_name": "한식",
            "name_kor": "우리나라",
            "add_kor_road": "중구 명동8가길 49(충무로2가 12 - 10)",
            "lat": 37.5619107,
            "lng": 126.9878057
        },
        {
            "id": 627,
            "category_name": "한식",
            "name_kor": "우림명가",
            "add_kor_road": "중구 서소문로89-20(정동 34-7)",
            "lat": 37.5631399,
            "lng": 126.9719451
        },
        {
            "id": 628,
            "category_name": "한식",
            "name_kor": "우림정",
            "add_kor_road": "서울 중구 세종대로11길 33-3 (서소문동) ",
            "lat": 37.5619015,
            "lng": 126.9741783
        },
        {
            "id": 629,
            "category_name": "한식",
            "name_kor": "우와",
            "add_kor_road": "중구 세종대로16길 23(북창동 11-6)",
            "lat": 37.5632869,
            "lng": 126.9777889
        },
        {
            "id": 630,
            "category_name": "한식",
            "name_kor": "원할머니 본가",
            "add_kor_road": "중구 난계로 201(황학동 1685), (1,2층)",
            "lat": 37.5696186,
            "lng": 127.0231595
        },
        {
            "id": 631,
            "category_name": "한식",
            "name_kor": "원할머니보쌈(약수점)",
            "add_kor_road": "서울 중구 신당2동 361-24 한미빌딩1층",
            "lat": 37.5539916,
            "lng": 127.0096702
        },
        {
            "id": 632,
            "category_name": "한식",
            "name_kor": "원할머니본가",
            "add_kor_road": "서울 중구 황학동 1685",
            "lat": 37.5696011,
            "lng": 127.0231868
        },
        {
            "id": 633,
            "category_name": "한식",
            "name_kor": "월매네남원추어탕",
            "add_kor_road": "서울 중구 서소문동 51-2",
            "lat": 37.5632848,
            "lng": 126.973273
        },
        {
            "id": 634,
            "category_name": "한식",
            "name_kor": "월촌",
            "add_kor_road": "중구 무교로 32(무교동 1), 효령빌딩 지하1층",
            "lat": 37.56870120000001,
            "lng": 126.9795249
        },
        {
            "id": 635,
            "category_name": "한식",
            "name_kor": "유고집칼국수",
            "add_kor_road": "서울 중구 퇴계로78길 39 (신당동) ",
            "lat": 37.5634962,
            "lng": 127.0166211
        },
        {
            "id": 636,
            "category_name": "한식",
            "name_kor": "유정식당",
            "add_kor_road": "중구 마장로1길 28-5(신당1동 217-111)",
            "lat": 37.5692781,
            "lng": 127.0126227
        },
        {
            "id": 637,
            "category_name": "한식",
            "name_kor": "은성",
            "add_kor_road": "서울 중구 을지로3가 296-4",
            "lat": 37.565182,
            "lng": 126.9924649
        },
        {
            "id": 638,
            "category_name": "한식",
            "name_kor": "은행나무집",
            "add_kor_road": "중구 다산로40길 17(신당5동112-6)",
            "lat": 37.5636693,
            "lng": 127.018018
        },
        {
            "id": 639,
            "category_name": "한식",
            "name_kor": "이가촌",
            "add_kor_road": "서울 중구 명동2가 3-3",
            "lat": 37.56303279999999,
            "lng": 126.9856018
        },
        {
            "id": 640,
            "category_name": "한식",
            "name_kor": "장가안가",
            "add_kor_road": "중구 퇴계로27길 12-3(필동1가 3-17)",
            "lat": 37.5617587,
            "lng": 126.9918048
        },
        {
            "id": 641,
            "category_name": "한식",
            "name_kor": "장안가",
            "add_kor_road": "중구 남대문로1길 42(북창동 18-4)",
            "lat": 37.5631345,
            "lng": 126.9775424
        },
        {
            "id": 642,
            "category_name": "한식",
            "name_kor": "장터본가",
            "add_kor_road": "서울 중구 남대문로4가 17-4",
            "lat": 37.561656,
            "lng": 126.976416
        },
        {
            "id": 643,
            "category_name": "한식",
            "name_kor": "목포세발낙지",
            "add_kor_road": "서울특별시 중구 남대문로9길 20 (다동) ",
            "lat": 37.5668286,
            "lng": 126.9813881
        },
        {
            "id": 644,
            "category_name": "한식",
            "name_kor": "무진장",
            "add_kor_road": "서울 중구 흥인동 118번지",
            "lat": 37.5659626,
            "lng": 127.0154623
        },
        {
            "id": 645,
            "category_name": "한식",
            "name_kor": "문화옥",
            "add_kor_road": "중구 창경궁로 62-5(주교동 118 - 3)",
            "lat": 37.568082,
            "lng": 126.9984559
        },
        {
            "id": 646,
            "category_name": "한식",
            "name_kor": "미각",
            "add_kor_road": "중구 을지로14길 21(을지로3가 296 - 6), (1~2층)",
            "lat": 37.5654369,
            "lng": 126.9920167
        },
        {
            "id": 647,
            "category_name": "한식",
            "name_kor": "미니마니",
            "add_kor_road": "중구 명동3길 23(을지로2가 199 - 44), (1,2층)",
            "lat": 37.5647196,
            "lng": 126.9834056
        },
        {
            "id": 648,
            "category_name": "한식",
            "name_kor": "미정갈비",
            "add_kor_road": "서울 중구 수표동 56-22",
            "lat": 37.5668667,
            "lng": 126.9892796
        },
        {
            "id": 649,
            "category_name": "한식",
            "name_kor": "미향한정식",
            "add_kor_road": "서울 중구 명동10길 35-10(명동2가 23)",
            "lat": 37.5624756,
            "lng": 126.9859828
        },
        {
            "id": 650,
            "category_name": "한식",
            "name_kor": "바우네보쌈",
            "add_kor_road": "서울 중구 명동길 25-7 (명동1가) ",
            "lat": 37.5641029,
            "lng": 126.9837852
        },
        {
            "id": 651,
            "category_name": "한식",
            "name_kor": "방일해장국",
            "add_kor_road": "서울 중구 새문안로 32 (충정로1가) ",
            "lat": 37.5678674,
            "lng": 126.9692324
        },
        {
            "id": 652,
            "category_name": "한식",
            "name_kor": "백상",
            "add_kor_road": "중구 서애로1길 49(묵정동 29 - 32)",
            "lat": 37.56113990000001,
            "lng": 127.0008398
        },
        {
            "id": 653,
            "category_name": "한식",
            "name_kor": "백송회관",
            "add_kor_road": "서울 중구 황학동 1066",
            "lat": 37.5677083,
            "lng": 127.0223501
        },
        {
            "id": 654,
            "category_name": "한식",
            "name_kor": "본가원조닭한마리",
            "add_kor_road": "서울 중구 초동 54",
            "lat": 37.5634967,
            "lng": 126.9920088
        },
        {
            "id": 655,
            "category_name": "한식",
            "name_kor": "본가집토종순대",
            "add_kor_road": "서울특별시 중구 퇴계로 197 (필동2가) ",
            "lat": 37.5598189,
            "lng": 126.9946111
        },
        {
            "id": 656,
            "category_name": "한식",
            "name_kor": "봉희 설렁탕",
            "add_kor_road": "중구 을지로44길 31(광희동1가 188-5)",
            "lat": 37.5651881,
            "lng": 127.0063395
        },
        {
            "id": 657,
            "category_name": "한식",
            "name_kor": "봉희설렁탕",
            "add_kor_road": "중구 을지로44길 31(광희동1가 188-5)",
            "lat": 37.5651881,
            "lng": 127.0063395
        },
        {
            "id": 658,
            "category_name": "한식",
            "name_kor": "부산갈비",
            "add_kor_road": "중구 마른내로 107-1(오장동 69 - 6)",
            "lat": 37.5645382,
            "lng": 126.9999624
        },
        {
            "id": 659,
            "category_name": "한식",
            "name_kor": "산정",
            "add_kor_road": "서울 중구 동호로 288 (장충동2가) ",
            "lat": 37.5601815,
            "lng": 127.0031185
        },
        {
            "id": 660,
            "category_name": "한식",
            "name_kor": "삼대냉면",
            "add_kor_road": "서울 중구 명동길 25-7 (명동1가) ",
            "lat": 37.5641029,
            "lng": 126.9837852
        },
        {
            "id": 661,
            "category_name": "한식",
            "name_kor": "삼수갑산",
            "add_kor_road": "중구 세종대로4길 8(남대문로5가 12-46)",
            "lat": 37.55799409999999,
            "lng": 126.9748793
        },
        {
            "id": 662,
            "category_name": "한식",
            "name_kor": "삼천리",
            "add_kor_road": "서울 중구 충무로1가 25-6 2층",
            "lat": 37.5610364,
            "lng": 126.9823871
        },
        {
            "id": 663,
            "category_name": "한식",
            "name_kor": "샤브궁샤브가",
            "add_kor_road": "서울 중구 덕수궁길 7 (태평로2가) ",
            "lat": 37.5646819,
            "lng": 126.9763406
        },
        {
            "id": 664,
            "category_name": "한식",
            "name_kor": "서울뚝배기",
            "add_kor_road": "중구 명동8나길 19(충무로3가 24 - 11)",
            "lat": 37.5611017,
            "lng": 126.9838034
        },
        {
            "id": 665,
            "category_name": "한식",
            "name_kor": "서울명숯불갈비",
            "add_kor_road": "서울 중구 황학동 1780번지",
            "lat": 37.5698632,
            "lng": 127.0199085
        },
        {
            "id": 666,
            "category_name": "한식",
            "name_kor": "서울삼계탕",
            "add_kor_road": "중구 마른내로 19(저동2가 17-8)",
            "lat": 37.564921,
            "lng": 126.990138
        },
        {
            "id": 667,
            "category_name": "한식",
            "name_kor": "서울삼계탕(영양센터)",
            "add_kor_road": "중구 남대문로1길 57(태평로2가 58)",
            "lat": 37.5635285,
            "lng": 126.9774973
        }
    ],
    "유형/등록문화재": [
        {
            "id": 15,
            "category_name": "유형/등록문화재",
            "name_kor": "구 신아일보사 별관(舊新亞日報社別館)",
            "add_kor_road": "중구 정동길33(정동 1-28)",
            "lat": 37.5661946,
            "lng": 126.9721747
        },
        {
            "id": 16,
            "category_name": "유형/등록문화재",
            "name_kor": "구 신아일보사 별관(舊新亞日報社別館)",
            "add_kor_road": "중구 정동길 33 (정동 1-28)",
            "lat": 37.5661946,
            "lng": 126.9721747
        },
        {
            "id": 17,
            "category_name": "유형/등록문화재",
            "name_kor": "남대문로 한국전력 사옥(南大門路韓國電力社屋)",
            "add_kor_road": "중구 남대문로 92(남대문로2가 5)",
            "lat": 37.5636996,
            "lng": 126.9817363
        },
        {
            "id": 18,
            "category_name": "유형/등록문화재",
            "name_kor": "남대문로 한국전력 사옥(南大門路韓國電力社屋)",
            "add_kor_road": "중구 남대문로 92(남대문로2가 5)",
            "lat": 37.5636996,
            "lng": 126.9817363
        },
        {
            "id": 19,
            "category_name": "유형/등록문화재",
            "name_kor": "미국공사관(美國公使館)",
            "add_kor_road": "중구 덕수궁길 83(정동 10-1)",
            "lat": 37.5658049,
            "lng": 126.9751461
        },
        {
            "id": 20,
            "category_name": "유형/등록문화재",
            "name_kor": "미국공사관(美國公使館)",
            "add_kor_road": "중구 덕수궁길 83(정동 10-1)",
            "lat": 37.5658049,
            "lng": 126.9751461
        },
        {
            "id": 21,
            "category_name": "유형/등록문화재",
            "name_kor": "서울시청 청사(서울市廳廳舍)",
            "add_kor_road": "중구 세종대로 110(태평로1가 31)",
            "lat": 37.5663797,
            "lng": 126.9777154
        },
        {
            "id": 22,
            "category_name": "유형/등록문화재",
            "name_kor": "서울시청 청사(서울市廳廳舍)",
            "add_kor_road": "중구 세종대로 110(태평로1가 31)",
            "lat": 37.5663797,
            "lng": 126.9777154
        },
        {
            "id": 23,
            "category_name": "유형/등록문화재",
            "name_kor": "성공회 서울성당(聖公會서울聖堂)",
            "add_kor_road": "중구 세종대로21길 15(정동 3)",
            "lat": 37.5671299,
            "lng": 126.9760517
        },
        {
            "id": 24,
            "category_name": "유형/등록문화재",
            "name_kor": "성공회 성당(聖公會聖堂)",
            "add_kor_road": "중구 세종대로21길 15(정동 3)",
            "lat": 37.5671299,
            "lng": 126.9760517
        },
        {
            "id": 25,
            "category_name": "유형/등록문화재",
            "name_kor": "성제묘(聖宰廟)",
            "add_kor_road": "중구 동호로 385-1(방산동 4-96)",
            "lat": 37.5688059,
            "lng": 127.0017946
        },
        {
            "id": 26,
            "category_name": "유형/등록문화재",
            "name_kor": "성제묘(聖宰廟)",
            "add_kor_road": "중구 동호로 385-1(방산동 4-96)",
            "lat": 37.5688059,
            "lng": 127.0017946
        },
        {
            "id": 27,
            "category_name": "유형/등록문화재",
            "name_kor": "수표교(水標橋)",
            "add_kor_road": "중구 동호로 257-10(장충동 2가 197)",
            "lat": 37.5583461,
            "lng": 127.0038674
        },
        {
            "id": 28,
            "category_name": "유형/등록문화재",
            "name_kor": "수표교(水標橋)",
            "add_kor_road": "중구 동호로 261(장충동 2가 197-1)",
            "lat": 37.5587439,
            "lng": 127.0047721
        },
        {
            "id": 29,
            "category_name": "유형/등록문화재",
            "name_kor": "신당동 박정희대통령 가옥  (新堂洞朴正熙大統領家屋)",
            "add_kor_road": "중구 다산로36가길 25(신당동 62-43)",
            "lat": 37.5614289,
            "lng": 127.0198413
        },
        {
            "id": 30,
            "category_name": "유형/등록문화재",
            "name_kor": "신당동 박정희대통령 가옥(新堂洞朴正熙大統領家屋)",
            "add_kor_road": "중구 다산로36가길 25(신당동 62-43)",
            "lat": 37.5614289,
            "lng": 127.0198413
        },
        {
            "id": 31,
            "category_name": "유형/등록문화재",
            "name_kor": "옛 제일은행 본점(舊弟一銀行本店)",
            "add_kor_road": "중구 남대문로 42(충무로1가 53-1)",
            "lat": 37.5610081,
            "lng": 126.9804679
        },
        {
            "id": 32,
            "category_name": "유형/등록문화재",
            "name_kor": "옛 제일은행 본점(舊弟一銀行本店)",
            "add_kor_road": "중구 남대문로 42 (충무로1가 53-1)",
            "lat": 37.5610081,
            "lng": 126.9804679
        },
        {
            "id": 33,
            "category_name": "유형/등록문화재",
            "name_kor": "장충단비(奬忠壇碑)",
            "add_kor_road": "중구 동호로 257-10(장충동 2가 197)",
            "lat": 37.5583461,
            "lng": 127.0038674
        },
        {
            "id": 34,
            "category_name": "유형/등록문화재",
            "name_kor": "장충단비(奬忠壇碑)",
            "add_kor_road": "중구 동호로 257-10(장충동 2가 197)",
            "lat": 37.5583461,
            "lng": 127.0038674
        },
        {
            "id": 35,
            "category_name": "유형/등록문화재",
            "name_kor": "정동 이화여고 심슨기념관(貞洞梨花女高심슨記念館)",
            "add_kor_road": "중구 정동길 26(정동 32-1)",
            "lat": 37.5659958,
            "lng": 126.9710704
        },
        {
            "id": 36,
            "category_name": "유형/등록문화재",
            "name_kor": "정동 이화여고 심슨기념관(貞洞梨花女高심슨記念館)",
            "add_kor_road": "중구 정동길 26(정동 32-1)",
            "lat": 37.5659958,
            "lng": 126.9710704
        },
        {
            "id": 37,
            "category_name": "유형/등록문화재",
            "name_kor": "태평로 구 국회의사당(太平路舊國會議事堂)",
            "add_kor_road": "중구 세종대로 125(태평로 1가 60-1)",
            "lat": 37.5673573,
            "lng": 126.976467
        },
        {
            "id": 38,
            "category_name": "유형/등록문화재",
            "name_kor": "태평로 구 국회의사당(太平路舊國會議事堂)",
            "add_kor_road": "중구 세종대로 125(태평로 1가 60-1)",
            "lat": 37.5673573,
            "lng": 126.976467
        },
        {
            "id": 39,
            "category_name": "유형/등록문화재",
            "name_kor": "태평로 구 국회의사당(太平路舊國會議事堂)",
            "add_kor_road": "중구 세종대로 125(태평로 1가 60-1)",
            "lat": 37.5673573,
            "lng": 126.976467
        },
        {
            "id": 264,
            "category_name": "유형/등록문화재",
            "name_kor": "구 미국문화원(舊美國文化院)",
            "add_kor_road": "중구  을지로 23(을지로1가 63)",
            "lat": 37.5662585,
            "lng": 126.9804555
        },
        {
            "id": 489,
            "category_name": "유형/등록문화재",
            "name_kor": "경운궁 양이재(慶運宮養怡齋)",
            "add_kor_road": "중구 세종대로21길 15(정동 3)",
            "lat": 37.5671299,
            "lng": 126.9760517
        },
        {
            "id": 490,
            "category_name": "유형/등록문화재",
            "name_kor": "경운궁 양이재(慶運宮養怡齋)",
            "add_kor_road": "중구 세종대로19길 16(정동 3)",
            "lat": 37.5667669,
            "lng": 126.9757177
        },
        {
            "id": 491,
            "category_name": "유형/등록문화재",
            "name_kor": "경희궁 숭정전(慶喜宮崇政殿)",
            "add_kor_road": "중구 필동로1길 30(장충동2가 192-5) (동국대학교 구내)",
            "lat": 37.5582178,
            "lng": 127.0002076
        },
        {
            "id": 492,
            "category_name": "유형/등록문화재",
            "name_kor": "경희궁 숭정전(慶喜宮崇政殿)",
            "add_kor_road": "중구  필동로1길 30(장충동2가 192-5) (동국대학교 구내)",
            "lat": 37.5582178,
            "lng": 127.0002076
        },
        {
            "id": 493,
            "category_name": "유형/등록문화재",
            "name_kor": "구 대법원 청사(舊大法院廳舍)",
            "add_kor_road": "중구 덕수궁길 61(서소문동 37)  ",
            "lat": 37.5640253,
            "lng": 126.9737793
        },
        {
            "id": 494,
            "category_name": "유형/등록문화재",
            "name_kor": "구 대법원 청사(舊大法院廳舍)",
            "add_kor_road": "중구 덕수궁길 61(서소문동 37)  ",
            "lat": 37.5640253,
            "lng": 126.9737793
        },
        {
            "id": 495,
            "category_name": "유형/등록문화재",
            "name_kor": "구 미국문화원(舊美國文化院)",
            "add_kor_road": "중구 을지로23(을지로1가 63)",
            "lat": 37.5662585,
            "lng": 126.9804555
        }
    ],
    "면세점": [
        {
            "id": 40,
            "category_name": "면세점",
            "name_kor": "동화면세점",
            "add_kor_road": "서울시 종로구 세종대로 149 (세종로) 광화문빌딩 지하 1층",
            "lat": 37.56953439999999,
            "lng": 126.9761363
        },
        {
            "id": 41,
            "category_name": "면세점",
            "name_kor": "동화면세점 ",
            "add_kor_road": "종로구 세종대로 149(세종로 211) 광화문빌딩 지하 1층",
            "lat": 37.56953439999999,
            "lng": 126.9761363
        },
        {
            "id": 42,
            "category_name": "면세점",
            "name_kor": "롯데면세점 ",
            "add_kor_road": "중구 남대문로 81(소공동1)",
            "lat": 37.5649903,
            "lng": 126.981369
        },
        {
            "id": 43,
            "category_name": "면세점",
            "name_kor": "롯데면세점 ",
            "add_kor_road": "중구 남대문로 81(소공동1)",
            "lat": 37.5649903,
            "lng": 126.981369
        },
        {
            "id": 44,
            "category_name": "면세점",
            "name_kor": "신라면세점",
            "add_kor_road": "중구 동호로 249(장충동2가 202)",
            "lat": 37.5577399,
            "lng": 127.0076342
        },
        {
            "id": 45,
            "category_name": "면세점",
            "name_kor": "신라면세점 ",
            "add_kor_road": "중구 동호로 249(장충동2가 202)",
            "lat": 37.5577399,
            "lng": 127.0076342
        }
    ],
    "백화점": [
        {
            "id": 46,
            "category_name": "백화점",
            "name_kor": "갤러리아백화점 ",
            "add_kor_road": "용산구 한강대로 405(동자동 43-205)",
            "lat": 37.5490645,
            "lng": 126.9704658
        },
        {
            "id": 47,
            "category_name": "백화점",
            "name_kor": "롯데백화점 ",
            "add_kor_road": "중구 남대문로 81(소공동1)",
            "lat": 37.5649903,
            "lng": 126.981369
        },
        {
            "id": 48,
            "category_name": "백화점",
            "name_kor": "롯데백화점 ",
            "add_kor_road": "중구 남대문로 81(소공동1)",
            "lat": 37.5649903,
            "lng": 126.981369
        },
        {
            "id": 49,
            "category_name": "백화점",
            "name_kor": "신세계백화점 ",
            "add_kor_road": "중구 퇴계로 97(충무로1가 25-5)",
            "lat": 37.5609522,
            "lng": 126.9825526
        },
        {
            "id": 50,
            "category_name": "백화점",
            "name_kor": "신세계백화점 ",
            "add_kor_road": "중구 퇴계로 97(충무로1가 25-5)",
            "lat": 37.5609522,
            "lng": 126.9825526
        }
    ],
    "쇼핑타운": [
        {
            "id": 51,
            "category_name": "쇼핑타운",
            "name_kor": "골든타운 ",
            "add_kor_road": "중구 마장로 34(신당동 204-1)",
            "lat": 37.5677662,
            "lng": 127.013495
        },
        {
            "id": 52,
            "category_name": "쇼핑타운",
            "name_kor": "골든타운 ",
            "add_kor_road": "중구 마장로 34(신당동 204-1)  ",
            "lat": 37.5677662,
            "lng": 127.013495
        },
        {
            "id": 53,
            "category_name": "쇼핑타운",
            "name_kor": "굿모닝시티",
            "add_kor_road": "중구 장충단로 247(을지로6가 18-21)",
            "lat": 37.5668355,
            "lng": 127.0073743
        },
        {
            "id": 54,
            "category_name": "쇼핑타운",
            "name_kor": "굿모닝시티 ",
            "add_kor_road": "중구 장충단로 247(을지로6가 18-21)",
            "lat": 37.5668355,
            "lng": 127.0073743
        },
        {
            "id": 55,
            "category_name": "쇼핑타운",
            "name_kor": "누죤",
            "add_kor_road": "중구 을지로45길 62(신당동 200-5)",
            "lat": 37.56695,
            "lng": 127.0130247
        },
        {
            "id": 56,
            "category_name": "쇼핑타운",
            "name_kor": "뉴존",
            "add_kor_road": "중구 을지로45길 62(신당동 200-5)",
            "lat": 37.56695,
            "lng": 127.0130247
        },
        {
            "id": 57,
            "category_name": "쇼핑타운",
            "name_kor": "두산타워",
            "add_kor_road": "중구 장충단로 275(을지로6가 18-12)",
            "lat": 37.5689316,
            "lng": 127.0087977
        },
        {
            "id": 58,
            "category_name": "쇼핑타운",
            "name_kor": "두산타워 ",
            "add_kor_road": "중구 장충단로 275(을지로6가 18-12)",
            "lat": 37.5689316,
            "lng": 127.0087977
        },
        {
            "id": 59,
            "category_name": "쇼핑타운",
            "name_kor": "디오트 ",
            "add_kor_road": "중구 다산로 293(신당동 193-2)",
            "lat": 37.5691202,
            "lng": 127.0149759
        },
        {
            "id": 60,
            "category_name": "쇼핑타운",
            "name_kor": "디오트 ",
            "add_kor_road": "중구 다산로 293(신당동 193-2)",
            "lat": 37.5691202,
            "lng": 127.0149759
        },
        {
            "id": 214,
            "category_name": "쇼핑타운",
            "name_kor": "디자이너클럽 ",
            "add_kor_road": "중구 을지로45길 72(신당1동 199-10)",
            "lat": 37.5673887,
            "lng": 127.0130676
        },
        {
            "id": 354,
            "category_name": "쇼핑타운",
            "name_kor": "케레스타 ",
            "add_kor_road": "중구 장충단로13길 20( 을지로6가 17)",
            "lat": 37.5686986,
            "lng": 127.0076666
        },
        {
            "id": 355,
            "category_name": "쇼핑타운",
            "name_kor": "케레스타 ",
            "add_kor_road": "중구 장충단로13길 20( 을지로6가 17)",
            "lat": 37.5686986,
            "lng": 127.0076666
        },
        {
            "id": 356,
            "category_name": "쇼핑타운",
            "name_kor": "테크노상가",
            "add_kor_road": "중구 마장로1가길 17(신당동 213-51)",
            "lat": 37.5688172,
            "lng": 127.0132095
        },
        {
            "id": 357,
            "category_name": "쇼핑타운",
            "name_kor": "테크노상가  ",
            "add_kor_road": "중구 마장로1가길 17(신당동 213-51)",
            "lat": 37.5688172,
            "lng": 127.0132095
        },
        {
            "id": 358,
            "category_name": "쇼핑타운",
            "name_kor": "헬로에이피엠",
            "add_kor_road": "중구 장충단로 253(을지로6가 18-35)",
            "lat": 37.5674458,
            "lng": 127.0080556
        },
        {
            "id": 359,
            "category_name": "쇼핑타운",
            "name_kor": "헬로에이피엠 ",
            "add_kor_road": "중구 장충단로 253(을지로6가 18-35)",
            "lat": 37.5674458,
            "lng": 127.0080556
        },
        {
            "id": 360,
            "category_name": "쇼핑타운",
            "name_kor": "혜양엘리시움 ",
            "add_kor_road": "중구 마장로1길 18(신당동 213-49)",
            "lat": 37.5686005,
            "lng": 127.0126271
        },
        {
            "id": 361,
            "category_name": "쇼핑타운",
            "name_kor": "혜양엘리시움 ",
            "add_kor_road": "중구 마장로1길 18(신당동 213-49)",
            "lat": 37.5686005,
            "lng": 127.0126271
        },
        {
            "id": 404,
            "category_name": "쇼핑타운",
            "name_kor": "디자이너클럽",
            "add_kor_road": "중구 을지로45길 72(신당1동 199-10)",
            "lat": 37.5673887,
            "lng": 127.0130676
        },
        {
            "id": 496,
            "category_name": "쇼핑타운",
            "name_kor": "유어스 ",
            "add_kor_road": "중구 을지로45길 43 ",
            "lat": 37.5669375,
            "lng": 127.0120174
        },
        {
            "id": 497,
            "category_name": "쇼핑타운",
            "name_kor": "유어스 ",
            "add_kor_road": "중구 퇴계로73가길 10(신당1동 251-71)",
            "lat": 37.56588380000001,
            "lng": 127.0136874
        },
        {
            "id": 544,
            "category_name": "쇼핑타운",
            "name_kor": "밀리오레 ",
            "add_kor_road": "서울시 중구 퇴계로 115 (충무로1가)",
            "lat": 37.56103,
            "lng": 126.98451
        },
        {
            "id": 545,
            "category_name": "쇼핑타운",
            "name_kor": "베네치아메가몰 지원센터",
            "add_kor_road": "중구 청계천로400(황학동 2545)   ",
            "lat": 37.5710628,
            "lng": 127.0210208
        },
        {
            "id": 546,
            "category_name": "쇼핑타운",
            "name_kor": "베네치아메가몰 지원센터",
            "add_kor_road": "중구 청계천로400(황학동 2545)   ",
            "lat": 37.5710628,
            "lng": 127.0210208
        },
        {
            "id": 547,
            "category_name": "쇼핑타운",
            "name_kor": "베네치아메가몰 지원센터 ",
            "add_kor_road": "중구 청계천로400(황학동 2545)   ",
            "lat": 37.5710628,
            "lng": 127.0210208
        },
        {
            "id": 548,
            "category_name": "쇼핑타운",
            "name_kor": "스튜디오W ",
            "add_kor_road": "중구 마장로1길 22(신당동 213-8)",
            "lat": 37.568852,
            "lng": 127.0126396
        },
        {
            "id": 549,
            "category_name": "쇼핑타운",
            "name_kor": "스튜디오W ",
            "add_kor_road": "중구 마장로1길 22(신당동 213-8)",
            "lat": 37.568852,
            "lng": 127.0126396
        },
        {
            "id": 550,
            "category_name": "쇼핑타운",
            "name_kor": "신세계 이마트 청계천점 ",
            "add_kor_road": "중구 청계천로400(황학동 2545)   ",
            "lat": 37.5710628,
            "lng": 127.0210208
        },
        {
            "id": 551,
            "category_name": "쇼핑타운",
            "name_kor": "신세계 이마트 청계천점 ",
            "add_kor_road": "중구 청계천로400(황학동 2545)   ",
            "lat": 37.5710628,
            "lng": 127.0210208
        },
        {
            "id": 552,
            "category_name": "쇼핑타운",
            "name_kor": "신세계 이마트 청계천점 ",
            "add_kor_road": "중구 청계천로400(황학동 2545)   ",
            "lat": 37.5710628,
            "lng": 127.0210208
        },
        {
            "id": 553,
            "category_name": "쇼핑타운",
            "name_kor": "신평화패션타운 ",
            "add_kor_road": "중구 청계천로 298(신당동217-1)",
            "lat": 37.5694387,
            "lng": 127.0110704
        },
        {
            "id": 554,
            "category_name": "쇼핑타운",
            "name_kor": "아트프라자 ",
            "add_kor_road": "중구 마장로1길 28(신당동 213-67)",
            "lat": 37.5691587,
            "lng": 127.0127816
        },
        {
            "id": 555,
            "category_name": "쇼핑타운",
            "name_kor": "아트프라자 ",
            "add_kor_road": "중구 마장로1길 28(신당동 213-67)",
            "lat": 37.5691587,
            "lng": 127.0127816
        },
        {
            "id": 556,
            "category_name": "쇼핑타운",
            "name_kor": "아트프라자 ",
            "add_kor_road": "중구 마장로1길 28(신당동 213-67)",
            "lat": 37.5691587,
            "lng": 127.0127816
        },
        {
            "id": 557,
            "category_name": "쇼핑타운",
            "name_kor": "아트플라자",
            "add_kor_road": "중구 마장로1길 28(신당동 213-67)",
            "lat": 37.5691587,
            "lng": 127.0127816
        },
        {
            "id": 558,
            "category_name": "쇼핑타운",
            "name_kor": "에이피엠패션몰 ",
            "add_kor_road": "중구 마장로 40(신당동 198)",
            "lat": 37.56768050000001,
            "lng": 127.0140157
        },
        {
            "id": 559,
            "category_name": "쇼핑타운",
            "name_kor": "에이피엠패션몰 ",
            "add_kor_road": "중구 마장로 40(신당동 198)",
            "lat": 37.56768050000001,
            "lng": 127.0140157
        },
        {
            "id": 668,
            "category_name": "쇼핑타운",
            "name_kor": "롯데아울렛 서울역점",
            "add_kor_road": "용산구 한강대로 405(동자동 43-205)",
            "lat": 37.5490645,
            "lng": 126.9704658
        },
        {
            "id": 669,
            "category_name": "쇼핑타운",
            "name_kor": "밀리오레 ",
            "add_kor_road": "서울특별시 중구 퇴계로 115",
            "lat": 37.5610141,
            "lng": 126.9845097
        }
    ],
    "전시장": [
        {
            "id": 61,
            "category_name": "전시장",
            "name_kor": "덕수궁 미술관",
            "add_kor_road": "중구 세종대로99(정동 5-1)",
            "lat": 37.5658049,
            "lng": 126.9751461
        },
        {
            "id": 143,
            "category_name": "전시장",
            "name_kor": "DDP(동대문 디자인 플라자)",
            "add_kor_road": "서울시 중구 을지로 281",
            "lat": 37.5667521,
            "lng": 127.0101046
        },
        {
            "id": 144,
            "category_name": "전시장",
            "name_kor": "관광안내전시관",
            "add_kor_road": "중구 청계천로 40 한국관광공사 지하1층",
            "lat": 37.5684628,
            "lng": 126.9816005
        },
        {
            "id": 145,
            "category_name": "전시장",
            "name_kor": "관광안내전시관 ",
            "add_kor_road": "중구 청계천로 40 한국관광공사 지하1층  ",
            "lat": 37.5684628,
            "lng": 126.9816005
        },
        {
            "id": 333,
            "category_name": "전시장",
            "name_kor": "한국 현대 문학관",
            "add_kor_road": "중구 동호로 268(장충동2가 189)",
            "lat": 37.5597735,
            "lng": 127.0042083
        },
        {
            "id": 334,
            "category_name": "전시장",
            "name_kor": "한국현대 문학관 ",
            "add_kor_road": "중구 동호로 268(장충동2가 186-210)",
            "lat": 37.5597735,
            "lng": 127.0042083
        },
        {
            "id": 670,
            "category_name": "전시장",
            "name_kor": "덕수궁 미술관 ",
            "add_kor_road": "중구 세종대로99(정동 5-1)",
            "lat": 37.5658049,
            "lng": 126.9751461
        },
        {
            "id": 671,
            "category_name": "전시장",
            "name_kor": "서울시립미술관",
            "add_kor_road": "중구 새문안로 45(서소문동 37)",
            "lat": 37.5712077,
            "lng": 126.9687336
        },
        {
            "id": 672,
            "category_name": "전시장",
            "name_kor": "서울시립미술관 ",
            "add_kor_road": "중구 덕수궁길 61(서소문동 37)  ",
            "lat": 37.5640253,
            "lng": 126.9737793
        },
        {
            "id": 673,
            "category_name": "전시장",
            "name_kor": "우표문화누리",
            "add_kor_road": "서울시 중구 반포로1 POST TOWER 지하2층",
            "lat": 37.561796,
            "lng": 126.9821493
        },
        {
            "id": 674,
            "category_name": "전시장",
            "name_kor": "우표문화누리 ",
            "add_kor_road": "서울시 중구 반포로1 POST TOWER 지하2층 ",
            "lat": 37.561796,
            "lng": 126.9821493
        },
        {
            "id": 675,
            "category_name": "전시장",
            "name_kor": "조선일보 미술관",
            "add_kor_road": "중구 세종대로21길 30(태평로1가 61)",
            "lat": 37.5678183,
            "lng": 126.975914
        },
        {
            "id": 676,
            "category_name": "전시장",
            "name_kor": "조선일보 미술관 ",
            "add_kor_road": "중구 세종대로 21길 30(태평로1가 61) ",
            "lat": 37.5678183,
            "lng": 126.975914
        }
    ],
    "공연장": [
        {
            "id": 84,
            "category_name": "공연장",
            "name_kor": "국립중앙극장",
            "add_kor_road": "중구 장충단로 59(장충동2가 산14-67)",
            "lat": 37.5525561,
            "lng": 126.9996092
        },
        {
            "id": 85,
            "category_name": "공연장",
            "name_kor": "국립중앙극장  ",
            "add_kor_road": "장충단로 59(장충동2가 산14-67)",
            "lat": 37.5528597,
            "lng": 126.9998129
        },
        {
            "id": 86,
            "category_name": "공연장",
            "name_kor": "남산예술센터",
            "add_kor_road": "중구 명동길35(예장동 8-19)  ",
            "lat": 37.5593871,
            "lng": 126.9882216
        },
        {
            "id": 87,
            "category_name": "공연장",
            "name_kor": "남산예술센터",
            "add_kor_road": "서울시 중구 소파로 138(예장동 8-19)",
            "lat": 37.5589457,
            "lng": 126.988437
        },
        {
            "id": 88,
            "category_name": "공연장",
            "name_kor": "덕수궁 돌담길을 따라 걷다보면 나타나는 보물같은 정동극장",
            "add_kor_road": null,
            "lat": null,
            "lng": null
        },
        {
            "id": 89,
            "category_name": "공연장",
            "name_kor": "명동(삼일로) 창고극장",
            "add_kor_road": "중구 삼일대로9길 12(저동1-20)",
            "lat": 37.5635035,
            "lng": 126.9878198
        },
        {
            "id": 90,
            "category_name": "공연장",
            "name_kor": "명동난타전용관",
            "add_kor_road": "서울시 중구 정동길 21-15(정동 15-5)",
            "lat": 37.5676814,
            "lng": 126.9709022
        },
        {
            "id": 91,
            "category_name": "공연장",
            "name_kor": "명동난타전용관 ",
            "add_kor_road": "서울특별시 중구 명동길 26 UNESCO Building",
            "lat": 37.5635611,
            "lng": 126.9836841
        },
        {
            "id": 92,
            "category_name": "공연장",
            "name_kor": "명동성당 꼬스트홀",
            "add_kor_road": "중구 명동길 74(명동2가 1-8)",
            "lat": 37.5632533,
            "lng": 126.9868325
        },
        {
            "id": 93,
            "category_name": "공연장",
            "name_kor": "명동성당 꼬스트홀 ",
            "add_kor_road": "중구 명동길 74(명동2가 1-8)",
            "lat": 37.5632533,
            "lng": 126.9868325
        },
        {
            "id": 94,
            "category_name": "공연장",
            "name_kor": "명동예술극장",
            "add_kor_road": "서울시 중구 명동길 35(명동 1가 54)",
            "lat": 37.563999,
            "lng": 126.9841738
        },
        {
            "id": 95,
            "category_name": "공연장",
            "name_kor": "명동예술극장",
            "add_kor_road": "중구 명동길 35(명동1가)",
            "lat": 37.5639955,
            "lng": 126.9842193
        },
        {
            "id": 96,
            "category_name": "공연장",
            "name_kor": "명동예술극장 ",
            "add_kor_road": "중구 명동길 35(명동 1가 54)",
            "lat": 37.563999,
            "lng": 126.9841738
        },
        {
            "id": 97,
            "category_name": "공연장",
            "name_kor": "명동창고극장 ",
            "add_kor_road": "중구 삼일대로9길 12(저동1-20)",
            "lat": 37.5635035,
            "lng": 126.9878198
        },
        {
            "id": 98,
            "category_name": "공연장",
            "name_kor": "명보아트홀",
            "add_kor_road": "중구 마른내길 47(초동18-5)   ",
            "lat": 37.5646969,
            "lng": 126.9931733
        },
        {
            "id": 99,
            "category_name": "공연장",
            "name_kor": "명보아트홀 ",
            "add_kor_road": "중구 마른내길 47(초동18-5)   ",
            "lat": 37.5646969,
            "lng": 126.9931733
        },
        {
            "id": 100,
            "category_name": "공연장",
            "name_kor": "문화일보홀",
            "add_kor_road": "서울 중구 새문안로 22(충정로1가 68)",
            "lat": 37.5670828,
            "lng": 126.9686365
        },
        {
            "id": 101,
            "category_name": "공연장",
            "name_kor": "문화일보홀 ",
            "add_kor_road": "서울특별시 중구 새문안로 22",
            "lat": 37.5670828,
            "lng": 126.9686365
        },
        {
            "id": 102,
            "category_name": "공연장",
            "name_kor": "서울남산국악당",
            "add_kor_road": "서울시 중구 퇴계로34길 28(필동2가 84-1)",
            "lat": 37.559315,
            "lng": 126.994477
        },
        {
            "id": 103,
            "category_name": "공연장",
            "name_kor": "서울남산국악당 ",
            "add_kor_road": "중구 퇴계로 34길 28(필동2가 84-1)    ",
            "lat": 37.559315,
            "lng": 126.994477
        },
        {
            "id": 104,
            "category_name": "공연장",
            "name_kor": "서울애니메이션센터",
            "add_kor_road": "중구 소파로126(예장동 8-145)  ",
            "lat": 37.5583238,
            "lng": 126.9879994
        },
        {
            "id": 105,
            "category_name": "공연장",
            "name_kor": "서울애니메이션센터 ",
            "add_kor_road": "중구 소파로126(예장동 8-145)  ",
            "lat": 37.5583238,
            "lng": 126.9879994
        },
        {
            "id": 106,
            "category_name": "공연장",
            "name_kor": "서울패션아트홀",
            "add_kor_road": "서울시 중구 퇴계로73길 50(신당동 251-1) 서울패션센터 5층",
            "lat": 37.5667203,
            "lng": 127.0141936
        },
        {
            "id": 107,
            "category_name": "공연장",
            "name_kor": "서울패션아트홀 ",
            "add_kor_road": "중구 퇴계로73길 50(신당동 251-1), 서울패션센터 5층 ",
            "lat": 37.5667203,
            "lng": 127.0141936
        },
        {
            "id": 108,
            "category_name": "공연장",
            "name_kor": "여해문화공간",
            "add_kor_road": "서울 중구 장충단로 204(장충동1가 26-6)",
            "lat": 37.5631723,
            "lng": 127.0073131
        },
        {
            "id": 109,
            "category_name": "공연장",
            "name_kor": "여해문화공간 ",
            "add_kor_road": "중구 장충단로 204(장충동1가 26-6)",
            "lat": 37.5631723,
            "lng": 127.0073131
        },
        {
            "id": 146,
            "category_name": "공연장",
            "name_kor": "이화여고 100주년 기념관",
            "add_kor_road": "중구 정동길 26(정동 32)",
            "lat": 37.5659958,
            "lng": 126.9710704
        },
        {
            "id": 147,
            "category_name": "공연장",
            "name_kor": "이화여고 100주년 기념관",
            "add_kor_road": "중구 정동길 26(정동 32)",
            "lat": 37.5659958,
            "lng": 126.9710704
        },
        {
            "id": 215,
            "category_name": "공연장",
            "name_kor": "이화여고100주년기념관 ",
            "add_kor_road": "중구 정동길 26(정동 32)",
            "lat": 37.5659958,
            "lng": 126.9710704
        },
        {
            "id": 216,
            "category_name": "공연장",
            "name_kor": "정동극장",
            "add_kor_road": "서울 중구 정동길 43(정동 8-11)",
            "lat": 37.565963,
            "lng": 126.9728046
        },
        {
            "id": 217,
            "category_name": "공연장",
            "name_kor": "정동극장 ",
            "add_kor_road": "중구 정동길 43(정동8-11)",
            "lat": 37.565963,
            "lng": 126.9728046
        },
        {
            "id": 218,
            "category_name": "공연장",
            "name_kor": "정동극장 [미소] 이제 당신이 볼 차례입니다!",
            "add_kor_road": null,
            "lat": null,
            "lng": null
        },
        {
            "id": 219,
            "category_name": "공연장",
            "name_kor": "중구 예술의 메카 충무아트홀",
            "add_kor_road": null,
            "lat": null,
            "lng": null
        },
        {
            "id": 220,
            "category_name": "공연장",
            "name_kor": "충무아트홀",
            "add_kor_road": "중구 퇴계로 387(흥인동 131)",
            "lat": 37.5660139,
            "lng": 127.0148131
        },
        {
            "id": 221,
            "category_name": "공연장",
            "name_kor": "충무아트홀 ",
            "add_kor_road": "중구 퇴계로 387(흥인동 131)",
            "lat": 37.5660139,
            "lng": 127.0148131
        },
        {
            "id": 222,
            "category_name": "공연장",
            "name_kor": "한국의집 민속극장 ",
            "add_kor_road": "중구 퇴계로36길 10(필동2가 80-2) ",
            "lat": 37.5602041,
            "lng": 126.9947198
        },
        {
            "id": 223,
            "category_name": "공연장",
            "name_kor": "한화손보(구 제일화재) 세실극장",
            "add_kor_road": "중구 세종대로19길 16(정동3-7) ",
            "lat": 37.5667701,
            "lng": 126.9760823
        },
        {
            "id": 224,
            "category_name": "공연장",
            "name_kor": "한화손보(구 제일화재) 세실극장",
            "add_kor_road": "서울시 중구 세종대로19길 16(정동3-7)",
            "lat": 37.5667701,
            "lng": 126.9760823
        },
        {
            "id": 225,
            "category_name": "공연장",
            "name_kor": "해치홀",
            "add_kor_road": "중구 명동8길 27(명동2가 31-1), M플라자 5층",
            "lat": 37.5625191,
            "lng": 126.9853142
        },
        {
            "id": 226,
            "category_name": "공연장",
            "name_kor": "해치홀",
            "add_kor_road": "중구 명동8길 27(명동2가 31-1), M플라자 5층",
            "lat": 37.5625191,
            "lng": 126.9853142
        },
        {
            "id": 227,
            "category_name": "공연장",
            "name_kor": "호암아트홀",
            "add_kor_road": "중구 서소문로 88(순화동 7)",
            "lat": 37.5615565,
            "lng": 126.9709855
        },
        {
            "id": 228,
            "category_name": "공연장",
            "name_kor": "호암아트홀",
            "add_kor_road": "중구 서소문로 88(순화동 7)",
            "lat": 37.5615565,
            "lng": 126.9709855
        }
    ],
    "기념관": [
        {
            "id": 110,
            "category_name": "기념관",
            "name_kor": "안중근의사 기념관",
            "add_kor_road": "중구 소월로 91(남대문로5가 471)",
            "lat": 37.5533252,
            "lng": 126.9804968
        },
        {
            "id": 111,
            "category_name": "기념관",
            "name_kor": "안중근의사 기념관 ",
            "add_kor_road": "중구 소월로 91(남대문로5가 471)",
            "lat": 37.5533252,
            "lng": 126.9804968
        },
        {
            "id": 112,
            "category_name": "기념관",
            "name_kor": "영락교회 50주년 기념관",
            "add_kor_road": "서울 중구 수표로 33(저동2가 69)",
            "lat": 37.5640016,
            "lng": 126.9889272
        },
        {
            "id": 113,
            "category_name": "기념관",
            "name_kor": "영락교회 50주년 기념관 ",
            "add_kor_road": "중구 수표로 33(저동2가 69)   ",
            "lat": 37.5640016,
            "lng": 126.9889272
        },
        {
            "id": 257,
            "category_name": "기념관",
            "name_kor": "고당기념관",
            "add_kor_road": "중구 수표로 48-2(저동 2가 4)",
            "lat": 37.5653719,
            "lng": 126.9906513
        },
        {
            "id": 258,
            "category_name": "기념관",
            "name_kor": "고당기념관",
            "add_kor_road": "중구 수표로 48-2(저동 2가 4)   ",
            "lat": 37.5653719,
            "lng": 126.9906513
        },
        {
            "id": 259,
            "category_name": "기념관",
            "name_kor": "고당기념관 ",
            "add_kor_road": "중구 수표로 48-2(저동 2가 4)   ",
            "lat": 37.5653719,
            "lng": 126.9906513
        },
        {
            "id": 260,
            "category_name": "기념관",
            "name_kor": "다시 태어난 안중근 의사 기념관",
            "add_kor_road": null,
            "lat": null,
            "lng": null
        },
        {
            "id": 261,
            "category_name": "기념관",
            "name_kor": "류관순 기념관",
            "add_kor_road": "중구 정동길 26(정동 32)",
            "lat": 37.5659958,
            "lng": 126.9710704
        },
        {
            "id": 262,
            "category_name": "기념관",
            "name_kor": "류관순 기념관",
            "add_kor_road": "서울시 중구 통일로4길 30-1(순화동 1-1)",
            "lat": 37.5649455,
            "lng": 126.9695624
        },
        {
            "id": 263,
            "category_name": "기념관",
            "name_kor": "류관순기념관 ",
            "add_kor_road": "중구 정동길 26(정동 32)",
            "lat": 37.5659958,
            "lng": 126.9710704
        }
    ],
    "도서관": [
        {
            "id": 114,
            "category_name": "도서관",
            "name_kor": "남산도서관 ",
            "add_kor_road": "용산구 소월로 109 (후암동) ",
            "lat": 37.549392,
            "lng": 126.9762125
        },
        {
            "id": 115,
            "category_name": "도서관",
            "name_kor": "손기정 도서관 ",
            "add_kor_road": "중구 손기정로101(만리동2가 6-1) 손기정공원내 생활정보도서실 ",
            "lat": 37.5552859,
            "lng": 126.9646656
        },
        {
            "id": 116,
            "category_name": "도서관",
            "name_kor": "손기정 도서관 ",
            "add_kor_road": "중구 손기정로 101(만리동2가 6-1) 손기정공원내 생활정보도서실 ",
            "lat": 37.5552859,
            "lng": 126.9646656
        }
    ],
    "박물관": [
        {
            "id": 117,
            "category_name": "박물관",
            "name_kor": "농업박물관",
            "add_kor_road": "중구 새문안로 16(충정로1가 75)",
            "lat": 37.5666176,
            "lng": 126.9684007
        },
        {
            "id": 118,
            "category_name": "박물관",
            "name_kor": "동국대학교 박물관",
            "add_kor_road": "서울시 중구 필동로1길 30(필동3가 26)",
            "lat": 37.5585916,
            "lng": 126.9997567
        },
        {
            "id": 119,
            "category_name": "박물관",
            "name_kor": "샬트르성바오로수녀회 역사박물관 ",
            "add_kor_road": "중구 명동길 74-2(명동2가 1-6) 샬트르성바오로수녀회",
            "lat": 37.5623411,
            "lng": 126.9880242
        },
        {
            "id": 120,
            "category_name": "박물관",
            "name_kor": "우리은행사박물관",
            "add_kor_road": "서울시 중구 소공로 51(회현동 1가 203) 우리은행",
            "lat": 37.5594007,
            "lng": 126.9817325
        },
        {
            "id": 121,
            "category_name": "박물관",
            "name_kor": "종이나라박물관",
            "add_kor_road": "서울시 중구 장충단로 116 종이나라빌딩 1,2층",
            "lat": 37.5596195,
            "lng": 127.0061614
        },
        {
            "id": 122,
            "category_name": "박물관",
            "name_kor": "지구촌민속교육박물관",
            "add_kor_road": "서울시 중구 소파로 46(회현동 1가 100-177)",
            "lat": 37.5545641,
            "lng": 126.9813029
        },
        {
            "id": 123,
            "category_name": "박물관",
            "name_kor": "초전섬유 퀼트박물관",
            "add_kor_road": "중구 퇴계로 18길 66(남산동 1-20), 제일문화원 1층",
            "lat": 37.5581193,
            "lng": 126.9842747
        },
        {
            "id": 124,
            "category_name": "박물관",
            "name_kor": "한국금융사박물관",
            "add_kor_road": "서울특별시 중구 세종대로 135-5(태평로 1가 62-12)",
            "lat": 37.5685498,
            "lng": 126.9764145
        },
        {
            "id": 125,
            "category_name": "박물관",
            "name_kor": "화폐금융박물관",
            "add_kor_road": "중구 남대문로 39(남대문로3가 110)",
            "lat": 37.5620577,
            "lng": 126.9805633
        }
    ],
    "영화관": [
        {
            "id": 126,
            "category_name": "영화관",
            "name_kor": "CGV 명동",
            "add_kor_road": "중구 명동길14(명동 2가 83-5),  눈스퀘어 8층",
            "lat": 37.5634207,
            "lng": 126.9828645
        },
        {
            "id": 127,
            "category_name": "영화관",
            "name_kor": "CGV 명동",
            "add_kor_road": "서울 중구  명동길 14(명동 2가 83-5) 눈스퀘어 8층",
            "lat": 37.5634207,
            "lng": 126.9828645
        },
        {
            "id": 128,
            "category_name": "영화관",
            "name_kor": "CGV 명동 ",
            "add_kor_road": "중구 명동길14(명동 2가 83-5),  눈스퀘어 8층",
            "lat": 37.5634207,
            "lng": 126.9828645
        },
        {
            "id": 129,
            "category_name": "영화관",
            "name_kor": "KTX시네마",
            "add_kor_road": "서울 중구 퇴계로36나길 33(필동2가 84-101) 우성빌딩4층",
            "lat": 37.556453,
            "lng": 126.993635
        },
        {
            "id": 130,
            "category_name": "영화관",
            "name_kor": "KTX시네마 ",
            "add_kor_road": "중구 퇴계로36나길 33(필동2가 84-101), 우성빌딩4층",
            "lat": 37.556453,
            "lng": 126.993635
        },
        {
            "id": 131,
            "category_name": "영화관",
            "name_kor": "대한극장",
            "add_kor_road": "서울 중구 퇴계로 212(충무로4가 125)",
            "lat": 37.5615016,
            "lng": 126.9955717
        },
        {
            "id": 132,
            "category_name": "영화관",
            "name_kor": "대한극장 ",
            "add_kor_road": "중구 퇴계로 212(충무로4가 125)",
            "lat": 37.5615016,
            "lng": 126.9955717
        },
        {
            "id": 133,
            "category_name": "영화관",
            "name_kor": "롯데시네마 ",
            "add_kor_road": "중구 남대문로73(남대문로2가 130) 에비뉴엘 6층, 7층 ",
            "lat": 37.56415200000001,
            "lng": 126.981643
        },
        {
            "id": 134,
            "category_name": "영화관",
            "name_kor": "롯데시네마 에비뉴엘",
            "add_kor_road": "서울시 중구 남대문로 73(남대문로2가 130) 에비뉴엘 6층, 7층 ",
            "lat": 37.564257,
            "lng": 126.981553
        },
        {
            "id": 135,
            "category_name": "영화관",
            "name_kor": "메가박스 동대문",
            "add_kor_road": "중구 장충단로 247(을지로6가 18-221) 굿모닝시티 9층",
            "lat": 37.5668311,
            "lng": 127.0075414
        },
        {
            "id": 136,
            "category_name": "영화관",
            "name_kor": "메가박스 동대문 ",
            "add_kor_road": "중구 장충단로 247(을지로6가 18-21), 굿모닝시티 9층",
            "lat": 37.5668311,
            "lng": 127.0075414
        },
        {
            "id": 137,
            "category_name": "영화관",
            "name_kor": "서울애니시네마",
            "add_kor_road": "서울시 중구 소파로 126(예장동 8-145)",
            "lat": 37.5583238,
            "lng": 126.9879994
        },
        {
            "id": 138,
            "category_name": "영화관",
            "name_kor": "서울애니시네마 ",
            "add_kor_road": "중구 소파로126(예장동 8-145), 서울애니메이션센터",
            "lat": 37.5583238,
            "lng": 126.9879994
        },
        {
            "id": 139,
            "category_name": "영화관",
            "name_kor": "스폰지 하우스 광화문: 영화관 옆 미술관",
            "add_kor_road": "서울시 중구 세종대로21길 40(태평로1가 61-21) 씨스퀘어빌딩 1층",
            "lat": 37.5682581,
            "lng": 126.9758565
        },
        {
            "id": 140,
            "category_name": "영화관",
            "name_kor": "스폰지하우스 광화문ㅣ 영화관 옆 미술관 ",
            "add_kor_road": "중구 세종대로21길 40(태평로1가 61-21) 씨스퀘어빌딩 1층 ",
            "lat": 37.5682285,
            "lng": 126.9758336
        },
        {
            "id": 141,
            "category_name": "영화관",
            "name_kor": "씨너스EOE4",
            "add_kor_road": "중구 장충단로 72(장충동 5-19) 남산자동차극장",
            "lat": 37.5172454,
            "lng": 127.0687295
        },
        {
            "id": 142,
            "category_name": "영화관",
            "name_kor": "씨너스EOE4 ",
            "add_kor_road": "중구 장충단로 72(장충동 5-19) 남산자동차극장",
            "lat": 37.5172454,
            "lng": 127.0687295
        }
    ],
    "문화유적/동상": [
        {
            "id": 148,
            "category_name": "문화유적/동상",
            "name_kor": "남별영·남소영 터 (南別營·南小營址)",
            "add_kor_road": "중구 퇴계로34길 28(필동2가 84-1)(한옥마을 내)",
            "lat": 37.559315,
            "lng": 126.994477
        },
        {
            "id": 305,
            "category_name": "문화유적/동상",
            "name_kor": "은성주점 터(銀星酒店址)",
            "add_kor_road": "중구 명동3길 6(명동1가 60)개양빌딩 진입 골목길 입구 인도변",
            "lat": 37.5638408,
            "lng": 126.9836079
        },
        {
            "id": 428,
            "category_name": "문화유적/동상",
            "name_kor": "3.1운동 기념터 : 세브란스 병원",
            "add_kor_road": "중구  통일로 10(남대문로5가 84-11) (지하철1호선 서울역 4번출구 앞)",
            "lat": 37.55746,
            "lng": 126.97314
        },
        {
            "id": 429,
            "category_name": "문화유적/동상",
            "name_kor": "3·1독립운동 기념터",
            "add_kor_road": "중구 남대문로 39(남대문로2가 110),한국은행 좌측 지하보도 앞",
            "lat": 37.5624674,
            "lng": 126.9797449
        },
        {
            "id": 430,
            "category_name": "문화유적/동상",
            "name_kor": "3·1운동기념터 (三一運動紀念址)",
            "add_kor_road": "중구 통일로 21(봉래동2가 123) (서울역전 우체국 우측)",
            "lat": 37.557571,
            "lng": 126.971423
        },
        {
            "id": 431,
            "category_name": "문화유적/동상",
            "name_kor": "3ㆍ1독립운동 기념탑",
            "add_kor_road": "중구 장충단로59(장충동2가 산14-67)",
            "lat": 37.5525561,
            "lng": 126.9996092
        },
        {
            "id": 432,
            "category_name": "문화유적/동상",
            "name_kor": "가산 터(假山址)",
            "add_kor_road": "중구 장충단로280(을지로6가 18-214)",
            "lat": 37.56723,
            "lng": 127.0074664
        },
        {
            "id": 433,
            "category_name": "문화유적/동상",
            "name_kor": "강우규의사 항일의거 자리",
            "add_kor_road": "중구 청파로 426(봉래동2가 122) (서울역 구 서울역사앞 출구앞)",
            "lat": 37.5536067,
            "lng": 126.9696195
        },
        {
            "id": 434,
            "category_name": "문화유적/동상",
            "name_kor": "강희맹 집터(姜希孟家址)",
            "add_kor_road": "중구 통일로 48(순화동 212-1) (한전 순화변전소 앞)",
            "lat": 37.5601063,
            "lng": 126.9714491
        },
        {
            "id": 435,
            "category_name": "문화유적/동상",
            "name_kor": "고산자 김정호 기념비",
            "add_kor_road": "중구 중림동 약현성당앞 로타리",
            "lat": 37.5591528,
            "lng": 126.9674472
        },
        {
            "id": 436,
            "category_name": "문화유적/동상",
            "name_kor": "고운담골",
            "add_kor_road": "중구 을지로 30 15(을지로1가 180)(롯데호텔 앞)",
            "lat": 37.5653,
            "lng": 126.980979
        },
        {
            "id": 437,
            "category_name": "문화유적/동상",
            "name_kor": "관립법어 학교터 (官立法語學校址)",
            "add_kor_road": "중구 정동길 18(정동 28) (서울지방국토 관리청 앞)",
            "lat": 37.5667569,
            "lng": 126.9700259
        },
        {
            "id": 438,
            "category_name": "문화유적/동상",
            "name_kor": "교서관 터(校書館址)",
            "add_kor_road": "중구 퇴계로20길 56(남산동 2가 26-8)(숭의여자대학 제1별관 정문 오른쪽)",
            "lat": 37.5563973,
            "lng": 126.9874967
        },
        {
            "id": 439,
            "category_name": "문화유적/동상",
            "name_kor": "구리개(仇里介)",
            "add_kor_road": "중구 남대문로90(을지로2가 199-3), (2호선 을지로입구역 6번 출구 제일은행 앞)",
            "lat": 37.566065,
            "lng": 126.982679
        },
        {
            "id": 440,
            "category_name": "문화유적/동상",
            "name_kor": "국도극장 터(國都劇場址)",
            "add_kor_road": "중구 을지로 164(을지로4가 310) 국도주차장",
            "lat": 37.5661408,
            "lng": 126.9962859
        },
        {
            "id": 441,
            "category_name": "문화유적/동상",
            "name_kor": "국사당 터(國師堂址)",
            "add_kor_road": "중구 남산공원길 125-54(예장동 8-1) (남산 팔각정 주변)",
            "lat": 37.5516667,
            "lng": 126.9876667
        },
        {
            "id": 442,
            "category_name": "문화유적/동상",
            "name_kor": "군기시 터(軍器寺址)",
            "add_kor_road": "중구 세종대로 124(태평로1가 25)(대한매일신문사빌딩 좌측 화단)",
            "lat": 37.56736799999999,
            "lng": 126.9778584
        },
        {
            "id": 443,
            "category_name": "문화유적/동상",
            "name_kor": "균역청 터(均役廳址)",
            "add_kor_road": "중구 퇴계로 173(충무로3가 60-1) (극동빌딩 회관)",
            "lat": 37.5617301,
            "lng": 126.991024
        },
        {
            "id": 444,
            "category_name": "문화유적/동상",
            "name_kor": "김범우의 집 터",
            "add_kor_road": "서울시 중구 을지로 66",
            "lat": 37.5653249,
            "lng": 126.9849538
        },
        {
            "id": 445,
            "category_name": "문화유적/동상",
            "name_kor": "김용환지사 상 ",
            "add_kor_road": "중구 장충단로 59(장충동2가 산14-67)(국립극장 입구 우측)",
            "lat": 37.5525561,
            "lng": 126.9996092
        },
        {
            "id": 446,
            "category_name": "문화유적/동상",
            "name_kor": "김유신장군 상 ",
            "add_kor_road": "중구 소월로 39-2(남창동 205-4), 남산공원 아동광장 내",
            "lat": 37.555596,
            "lng": 126.9774937
        },
        {
            "id": 447,
            "category_name": "문화유적/동상",
            "name_kor": "김익상의사 의거 터 (金益相義士義擧址)",
            "add_kor_road": "중구 소파로 126(예장동 8-145) (서울애니메이션센터 정문 왼쪽)",
            "lat": 37.5583238,
            "lng": 126.9879994
        },
        {
            "id": 448,
            "category_name": "문화유적/동상",
            "name_kor": "나석주(羅錫疇)의사 의거 기념터",
            "add_kor_road": "중구 을지로 66(을지로2가 181)(외환은행본점 좌측 화단)",
            "lat": 37.5664021,
            "lng": 126.9818843
        },
        {
            "id": 449,
            "category_name": "문화유적/동상",
            "name_kor": "나석주열사 상",
            "add_kor_road": "중구 을지로 66 (을지로2가 181) (외환은행 본점 뒷편화단) ",
            "lat": 37.565067,
            "lng": 126.985023
        },
        {
            "id": 450,
            "category_name": "문화유적/동상",
            "name_kor": "남별궁 터(南別宮址)",
            "add_kor_road": "중구 소공로 106(소공동 87)(조선호텔 입구 화단)",
            "lat": 37.564378,
            "lng": 126.980058
        },
        {
            "id": 451,
            "category_name": "문화유적/동상",
            "name_kor": "읍백당 터",
            "add_kor_road": "중구 퇴계로26가길 6(예장동 2), 한 슈이츠빌딩 옆 소공원",
            "lat": 37.5583858,
            "lng": 126.9910469
        },
        {
            "id": 452,
            "category_name": "문화유적/동상",
            "name_kor": "이덕형선생 집터(李德馨先生家址)",
            "add_kor_road": "중구 퇴계로 18(남대문로 5가 526) (대우재단빌딩 앞)",
            "lat": 37.5565082,
            "lng": 126.975109
        },
        {
            "id": 453,
            "category_name": "문화유적/동상",
            "name_kor": "이문 터(里門址)",
            "add_kor_road": "중구 세종대로 55(태평로 2가 150)(삼성생명 빌딩, 로댕갤러리 앞)",
            "lat": 37.5616462,
            "lng": 126.9747939
        },
        {
            "id": 454,
            "category_name": "문화유적/동상",
            "name_kor": "이벽의 집터",
            "add_kor_road": "종로구 청계천로 105",
            "lat": 37.5684366,
            "lng": 126.9893082
        },
        {
            "id": 455,
            "category_name": "문화유적/동상",
            "name_kor": "이재명의사 의거터 (李在明義士義擧址)",
            "add_kor_road": "중구 명동길 74(명동2가 1) 명동성당입구 우측보도",
            "lat": 37.563177,
            "lng": 126.9873604
        },
        {
            "id": 456,
            "category_name": "문화유적/동상",
            "name_kor": "이충순 자결 터 (李忠純自決址)",
            "add_kor_road": "중구 서소문로 88(순화동 7) (중앙일보 정문 우측화단)",
            "lat": 37.5615565,
            "lng": 126.9709855
        },
        {
            "id": 457,
            "category_name": "문화유적/동상",
            "name_kor": "이한응선생 기념비",
            "add_kor_road": "중구 동호로 261(장충동2가 산 196-1)(장충단공원 절내) ",
            "lat": 37.5577308,
            "lng": 127.0043005
        },
        {
            "id": 458,
            "category_name": "문화유적/동상",
            "name_kor": "이황선생 집터(二黃先生家址)",
            "add_kor_road": "중구 덕수궁길 61(서소문동 37) (구 대법원 내)",
            "lat": 37.5642629,
            "lng": 126.9746757
        },
        {
            "id": 459,
            "category_name": "문화유적/동상",
            "name_kor": "이회영·이시영 6형제 집터",
            "add_kor_road": "중구 명동길 73(명동1가 1)(YMCA주차장 앞 소공원 화단)",
            "lat": 37.5645078,
            "lng": 126.9854969
        },
        {
            "id": 460,
            "category_name": "문화유적/동상",
            "name_kor": "일석 이희승선생 추모비 ",
            "add_kor_road": "중구 퇴계로34길 28(필동2가 84-1) (한옥마을 내)",
            "lat": 37.559315,
            "lng": 126.994477
        },
        {
            "id": 461,
            "category_name": "문화유적/동상",
            "name_kor": "일성 이준열사 상",
            "add_kor_road": "중구 동호로 261(장충동2가 산 196-1)(장충단공원 내) ",
            "lat": 37.5577308,
            "lng": 127.0043005
        },
        {
            "id": 462,
            "category_name": "문화유적/동상",
            "name_kor": "장악원터(掌樂院址)",
            "add_kor_road": "중구 을지로 66(을지로2가 181)(외환은행본점 좌측 화단)",
            "lat": 37.5664021,
            "lng": 126.9818843
        },
        {
            "id": 463,
            "category_name": "문화유적/동상",
            "name_kor": "장충단 터(奬忠壇址)",
            "add_kor_road": "중구 동호로261(장충동2가 산197) (장충단공원 내)",
            "lat": 37.5577308,
            "lng": 127.0043005
        },
        {
            "id": 464,
            "category_name": "문화유적/동상",
            "name_kor": "저경궁 터(儲慶宮址)",
            "add_kor_road": "중구 남대문로 39(남대문로3가 110)(한국은행 후문 인근)",
            "lat": 37.5620577,
            "lng": 126.9805633
        },
        {
            "id": 465,
            "category_name": "문화유적/동상",
            "name_kor": "전환국 터(典局址)",
            "add_kor_road": "중구 세종대로 55(태평로2가 150) (신한은행, 상성생명빌딩 사이)",
            "lat": 37.5637003,
            "lng": 126.9773343
        },
        {
            "id": 466,
            "category_name": "문화유적/동상",
            "name_kor": "정광필 집터(鄭光弼家址)",
            "add_kor_road": "중구 소공로 51(회현동1가 203) (우리은행 오른쪽 측면 화단 내)",
            "lat": 37.5594007,
            "lng": 126.9817325
        },
        {
            "id": 467,
            "category_name": "문화유적/동상",
            "name_kor": "정미의병 발원터(丁未義兵發源地)",
            "add_kor_road": "중구 세종대로9길 42(서소문동 120-23) (동아건설빌딩 좌측 화단)",
            "lat": 37.5618286,
            "lng": 126.9735074
        },
        {
            "id": 468,
            "category_name": "문화유적/동상",
            "name_kor": "제중원 터(濟衆院址)",
            "add_kor_road": "중구 을지로 66(을지로2가 181) (외환은행본점 뒤편 화단)",
            "lat": 37.5664021,
            "lng": 126.9818843
        },
        {
            "id": 469,
            "category_name": "문화유적/동상",
            "name_kor": "조선광문회 터(朝鮮光文會址)",
            "add_kor_road": "중구 남대문로10길 29(삼각동 7-1) (현 글로스타 빌딩 앞)",
            "lat": 37.5672335,
            "lng": 126.9836227
        },
        {
            "id": 470,
            "category_name": "문화유적/동상",
            "name_kor": "조지훈 시비",
            "add_kor_road": "중구 예장동 남산공원길 507(산5-6)",
            "lat": 37.5511694,
            "lng": 126.9882266
        },
        {
            "id": 471,
            "category_name": "문화유적/동상",
            "name_kor": "조택원 춤비 ",
            "add_kor_road": "중구 장충단로 59(장충동2가 산14-67)(국립극장 내) ",
            "lat": 37.5525561,
            "lng": 126.9996092
        },
        {
            "id": 472,
            "category_name": "문화유적/동상",
            "name_kor": "주자소 터(鑄字所址)",
            "add_kor_road": "중구 퇴계로 173(충무로3가 60-1) (극동빌딩 앞 화단)",
            "lat": 37.5617301,
            "lng": 126.991024
        },
        {
            "id": 473,
            "category_name": "문화유적/동상",
            "name_kor": "진고개(泥峴)",
            "add_kor_road": "중구 명동8가길 32(충무로 2가 62-1)",
            "lat": 37.5616441,
            "lng": 126.986834
        },
        {
            "id": 474,
            "category_name": "문화유적/동상",
            "name_kor": "춘강 박승희 기념비 ",
            "add_kor_road": "중구 장충동 장충단로 59(산14-67)(국립극장 내) ",
            "lat": 37.5525561,
            "lng": 126.9996092
        },
        {
            "id": 475,
            "category_name": "문화유적/동상",
            "name_kor": "충무공 이순신 생가 터",
            "add_kor_road": "중구 마른내로 47(초동 18-5)(명보극장 앞 보도)",
            "lat": 37.5646936,
            "lng": 126.9931903
        },
        {
            "id": 476,
            "category_name": "문화유적/동상",
            "name_kor": "칠패시장 터(七牌市場址)",
            "add_kor_road": "중구 칠패로 36(봉래동1가 48-3) (연세봉래빌딩 앞 보도)",
            "lat": 37.5593967,
            "lng": 126.9728591
        },
        {
            "id": 477,
            "category_name": "문화유적/동상",
            "name_kor": "태평관 터(太平館址)",
            "add_kor_road": "중구 서소문 58-17 (명지빌딩 우측)",
            "lat": 37.5588692,
            "lng": 126.9869689
        },
        {
            "id": 478,
            "category_name": "문화유적/동상",
            "name_kor": "통감부 터(統監府址)",
            "add_kor_road": "중구 퇴계로18길(예장동 8)",
            "lat": 37.5587928,
            "lng": 126.9847401
        },
        {
            "id": 479,
            "category_name": "문화유적/동상",
            "name_kor": "팔홍문 터(八紅門址)",
            "add_kor_road": "중구 칠패로(순화동 207-1)",
            "lat": 37.5596914,
            "lng": 126.971714
        },
        {
            "id": 480,
            "category_name": "문화유적/동상",
            "name_kor": "풀무재(冶峴)",
            "add_kor_road": "중구 퇴계로50길 13(장충동2가 173-7)(충무초등학교돌담인근육교앞)",
            "lat": 37.56206359999999,
            "lng": 127.0017451
        },
        {
            "id": 481,
            "category_name": "문화유적/동상",
            "name_kor": "하도감 터(下都監址)",
            "add_kor_road": "중구 을지로 281(을지로 7가 4-1)(동대문디자인 플라자 남측)",
            "lat": 37.5667467,
            "lng": 127.009505
        },
        {
            "id": 482,
            "category_name": "문화유적/동상",
            "name_kor": "학생 반공의 탑 ",
            "add_kor_road": "중구 장충단로 72(한국자유총연맹 내) ",
            "lat": 37.551591,
            "lng": 127.0024717
        },
        {
            "id": 483,
            "category_name": "문화유적/동상",
            "name_kor": "한국 유림 독립운동파리장서비",
            "add_kor_road": "중구 동호로 261(장충동2가 산 196-1)(장충단공원 내) ",
            "lat": 37.5577308,
            "lng": 127.0043005
        },